insee,codePostal,nomCommune,nomCommuneExact,altitude,latitude,longitude,codeDepartement,departement,region,vent,neige,seisme
01001,01400,L ABERGEMENT CLEMENCIAT,L'Abergement-Clémenciat,242,46.1534255214,4.92611354223,1,Ain,Auvergne-Rhône-Alpes,2,A2,2
01002,01640,L ABERGEMENT DE VAREY,L'Abergement-de-Varey,483,46.0091878776,5.42801696363,1,Ain,Auvergne-Rhône-Alpes,1,C2,3
01004,01500,AMBERIEU EN BUGEY,Ambérieu-en-Bugey,379,45.9608475114,5.3729257777,1,Ain,Auvergne-Rhône-Alpes,1,C2,3
01005,01330,AMBERIEUX EN DOMBES,Ambérieux-en-Dombes,290,45.9961799872,4.91227250796,1,Ain,Auvergne-Rhône-Alpes,2,A2,2
01006,01300,AMBLEON,Ambléon,589,45.7494989044,5.59432017366,1,Ain,Auvergne-Rhône-Alpes,1,C2,3
01007,01500,AMBRONAY,Ambronay,309,46.0055913782,5.35760660735,1,Ain,Auvergne-Rhône-Alpes,1,C2,3
01008,01500,AMBUTRIX,Ambutrix,274,45.9367134524,5.3328092349,1,Ain,Auvergne-Rhône-Alpes,1,C2,3
01009,01300,ANDERT ET CONDON,Andert-et-Condon,294,45.7873565333,5.65788307924,1,Ain,Auvergne-Rhône-Alpes,1,C2,3
01010,01350,ANGLEFORT,Anglefort,706,45.9093715116,5.79516005674,1,Ain,Auvergne-Rhône-Alpes,1,C2,3
01011,01100,APREMONT,Apremont,927,46.2054981558,5.65781475272,1,Ain,Auvergne-Rhône-Alpes,1,C2,3
01012,01110,ARANC,Aranc,795,46.0015344029,5.51130637511,1,Ain,Auvergne-Rhône-Alpes,1,C2,3
01013,01230,ARANDAS,Arandas,749,45.8908155275,5.49870439091,1,Ain,Auvergne-Rhône-Alpes,1,C2,3
01014,01100,ARBENT,Arbent,709,46.2834936005,5.69061651221,1,Ain,Auvergne-Rhône-Alpes,1,C2,3
01015,01300,ARBOYS EN BUGEY,Arboys en Bugey,289,45.7237621545,5.65263086429,1,Ain,Auvergne-Rhône-Alpes,1,C2,3
01016,01190,ARBIGNY,Arbigny,185,46.4776762988,4.9599416863,1,Ain,Auvergne-Rhône-Alpes,2,A2,2
01017,01230,ARGIS,Argis,517,45.9337182132,5.48251100314,1,Ain,Auvergne-Rhône-Alpes,1,C2,3
01019,01510,ARMIX,Armix,831,45.8541838459,5.58357838695,1,Ain,Auvergne-Rhône-Alpes,1,C2,3
01021,01480,ARS SUR FORMANS,Ars-sur-Formans,257,45.9934611,4.82199649494,1,Ain,Auvergne-Rhône-Alpes,2,A2,2
01022,01510,ARTEMARE,Artemare,267,45.8695891748,5.69065283943,1,Ain,Auvergne-Rhône-Alpes,1,C2,3
01023,01570,ASNIERES SUR SAONE,Asnières-sur-Saône,172,46.3857281418,4.88387478623,1,Ain,Auvergne-Rhône-Alpes,2,A2,2
01024,01340,ATTIGNAT,Attignat,217,46.2861802203,5.1795233845,1,Ain,Auvergne-Rhône-Alpes,2,A2,2
01025,01380,BAGE LA VILLE,Bâgé-Dommartin,201,46.3233203302,4.9528678933,1,Ain,Auvergne-Rhône-Alpes,2,A2,2
01026,01380,BAGE LE CHATEL,Bâgé-le-Châtel,202,46.3077069231,4.92862084189,1,Ain,Auvergne-Rhône-Alpes,2,A2,2
01027,01360,BALAN,Balan,194,45.8311226453,5.10780019249,1,Ain,Auvergne-Rhône-Alpes,2,A2,3
01028,01990,BANEINS,Baneins,242,46.1141214445,4.90146475101,1,Ain,Auvergne-Rhône-Alpes,2,A2,2
01029,01270,BEAUPONT,Beaupont,205,46.4288360203,5.26003405676,1,Ain,Auvergne-Rhône-Alpes,2,A2,3
01030,01480,BEAUREGARD,Beauregard,205,46.0008580204,4.75600664694,1,Ain,Auvergne-Rhône-Alpes,2,A2,2
01031,01100,BELLIGNAT,Bellignat,662,46.2373497134,5.6360052884,1,Ain,Auvergne-Rhône-Alpes,1,C2,3
01032,01360,BELIGNEUX,Béligneux,223,45.8591464826,5.13989505865,1,Ain,Auvergne-Rhône-Alpes,2,A2,3
01033,01200,BELLEGARDE SUR VALSERINE,Bellegarde-sur-Valserine,554,46.1067901755,5.83202736464,1,Ain,Auvergne-Rhône-Alpes,1,C2,3
01034,01300,BELLEY,Belley,278,45.7494697806,5.68412365526,1,Ain,Auvergne-Rhône-Alpes,1,C2,3
01035,01130,BELLEYDOUX,Belleydoux,953,46.2530316409,5.78471723698,1,Ain,Auvergne-Rhône-Alpes,1,C2,3
01036,01260,BELMONT LUTHEZIEU,Belmont-Luthézieu,630,45.8847475883,5.65115788055,1,Ain,Auvergne-Rhône-Alpes,1,C2,3
01037,01470,BENONCES,Bénonces,702,45.8374974718,5.48285330863,1,Ain,Auvergne-Rhône-Alpes,1,C2,3
01038,01370,BENY,Bény,227,46.3188629218,5.28253433405,1,Ain,Auvergne-Rhône-Alpes,2,A2,3
01039,01350,BEON,Béon,510,45.8568920052,5.75220315052,1,Ain,Auvergne-Rhône-Alpes,1,C2,3
01040,01340,BEREZIAT,Béréziat,201,46.3674371012,5.04021655965,1,Ain,Auvergne-Rhône-Alpes,2,A2,2
01041,01500,BETTANT,Bettant,326,45.9368718303,5.36667617009,1,Ain,Auvergne-Rhône-Alpes,1,C2,3
01042,01290,BEY,Bey,199,46.2191748844,4.84642690241,1,Ain,Auvergne-Rhône-Alpes,2,A2,2
01043,01700,BEYNOST,Beynost,237,45.8390325448,4.99738002182,1,Ain,Auvergne-Rhône-Alpes,2,A2,2
01044,01200,BILLIAT,Billiat,774,46.0791346715,5.76591818163,1,Ain,Auvergne-Rhône-Alpes,1,C2,3
01045,01330,BIRIEUX,Birieux,281,45.9533995502,5.03666479984,1,Ain,Auvergne-Rhône-Alpes,2,A2,2
01046,01290,BIZIAT,Biziat,195,46.2266794269,4.94084673168,1,Ain,Auvergne-Rhône-Alpes,2,A2,2
01047,01150,BLYES,Blyes,212,45.8469686113,5.25166055884,1,Ain,Auvergne-Rhône-Alpes,1,C2,3
01049,01120,LA BOISSE,La Boisse,230,45.8446213549,5.02783224111,1,Ain,Auvergne-Rhône-Alpes,2,A2,3
01050,01190,BOISSEY,Boissey,198,46.3727973545,4.9989764059,1,Ain,Auvergne-Rhône-Alpes,2,A2,2
01050,01380,BOISSEY,Boissey,198,46.3727973545,4.9989764059,1,Ain,Auvergne-Rhône-Alpes,2,A2,2
01051,01450,BOLOZON,Bolozon,388,46.1960338503,5.47095075411,1,Ain,Auvergne-Rhône-Alpes,1,C2,3
01052,01330,BOULIGNEUX,Bouligneux,282,46.0232774841,4.99252709276,1,Ain,Auvergne-Rhône-Alpes,2,A2,2
01053,01000,BOURG EN BRESSE,Bourg-en-Bresse,239,46.2051520382,5.24602125501,1,Ain,Auvergne-Rhône-Alpes,1,A2,3
01054,01800,BOURG ST CHRISTOPHE,Bourg-Saint-Christophe,256,45.8861934456,5.14349196896,1,Ain,Auvergne-Rhône-Alpes,2,A2,3
01056,01640,BOYEUX ST JEROME,Boyeux-Saint-Jérôme,577,46.0363677631,5.46322744717,1,Ain,Auvergne-Rhône-Alpes,1,C2,3
01057,01190,BOZ,Boz,186,46.4051688134,4.9135797178,1,Ain,Auvergne-Rhône-Alpes,2,A2,2
01058,01300,BREGNIER CORDON,Brégnier-Cordon,230,45.6416854652,5.61653371,1,Ain,Auvergne-Rhône-Alpes,1,C2,3
01059,01260,BRENAZ,Brénaz,984,45.9500082947,5.7371892334,1,Ain,Auvergne-Rhône-Alpes,1,C2,3
01060,01110,BRENOD,Brénod,925,46.0759940484,5.61418361314,1,Ain,Auvergne-Rhône-Alpes,1,C2,3
01061,01300,BRENS,Brens,252,45.7135069062,5.68998154517,1,Ain,Auvergne-Rhône-Alpes,1,C2,3
01062,01360,BRESSOLLES,Bressolles,261,45.869423064,5.1009428902,1,Ain,Auvergne-Rhône-Alpes,2,A2,3
01063,01460,BRION,Brion,486,46.1686327301,5.54656422194,1,Ain,Auvergne-Rhône-Alpes,1,C2,3
01064,01470,BRIORD,Briord,290,45.7708330939,5.48537461884,1,Ain,Auvergne-Rhône-Alpes,1,C2,3
01065,01310,BUELLAS,Buellas,225,46.2104135162,5.14487465017,1,Ain,Auvergne-Rhône-Alpes,1,A2,2
01066,01510,LA BURBANCHE,La Burbanche,546,45.8598709332,5.54609714598,1,Ain,Auvergne-Rhône-Alpes,1,C2,3
01067,01430,CEIGNES,Ceignes,684,46.1256533435,5.49457379202,1,Ain,Auvergne-Rhône-Alpes,1,C2,3
01068,01450,CERDON,Cerdon,552,46.0720202633,5.47577586118,1,Ain,Auvergne-Rhône-Alpes,1,C2,3
01069,01240,CERTINES,Certines,254,46.1337950959,5.26239539372,1,Ain,Auvergne-Rhône-Alpes,1,A2,3
01071,01170,CESSY,Cessy,525,46.315689376,6.0779844362,1,Ain,Auvergne-Rhône-Alpes,1,C2,3
01072,01250,CEYZERIAT,Ceyzériat,322,46.1832170988,5.32007207542,1,Ain,Auvergne-Rhône-Alpes,1,C2,3
01073,01350,CEYZERIEU,Ceyzérieu,306,45.8335530148,5.71933090966,1,Ain,Auvergne-Rhône-Alpes,1,C2,3
01074,01320,CHALAMONT,Chalamont,292,46.0076491739,5.16936568,1,Ain,Auvergne-Rhône-Alpes,2,A2,3
01075,01480,CHALEINS,Chaleins,234,46.0340545373,4.79853838574,1,Ain,Auvergne-Rhône-Alpes,2,A2,2
01076,01230,CHALEY,Chaley,591,45.9533367734,5.53682505273,1,Ain,Auvergne-Rhône-Alpes,1,C2,3
01077,01450,CHALLES LA MONTAGNE,Challes-la-Montagne,519,46.1221539654,5.45755377201,1,Ain,Auvergne-Rhône-Alpes,1,C2,3
01078,01630,CHALLEX,Challex,442,46.1768358327,5.97115092939,1,Ain,Auvergne-Rhône-Alpes,1,C2,3
01079,01260,CHAMPAGNE EN VALROMEY,Champagne-en-Valromey,584,45.9316447397,5.69321890072,1,Ain,Auvergne-Rhône-Alpes,1,C2,3
01080,01110,CHAMPDOR CORCELLES,Champdor-Corcelles,918,46.0198844188,5.60008759722,1,Ain,Auvergne-Rhône-Alpes,1,C2,3
01081,01410,CHAMPFROMIER,Champfromier,1049,46.220365768,5.82233573131,1,Ain,Auvergne-Rhône-Alpes,1,C2,3
01082,01420,CHANAY,Chanay,742,46.005695299,5.76893393185,1,Ain,Auvergne-Rhône-Alpes,1,C2,3
01083,01990,CHANEINS,Chaneins,251,46.0934984191,4.85473364691,1,Ain,Auvergne-Rhône-Alpes,2,A2,2
01084,01400,CHANOZ CHATENAY,Chanoz-Châtenay,234,46.1861812234,5.02807719246,1,Ain,Auvergne-Rhône-Alpes,2,A2,2
01085,01240,LA CHAPELLE DU CHATELARD,La Chapelle-du-Châtelard,266,46.0744536905,5.02162055898,1,Ain,Auvergne-Rhône-Alpes,1,A2,3
01087,01130,CHARIX,Charix,856,46.1856344066,5.6811896084,1,Ain,Auvergne-Rhône-Alpes,1,C2,3
01088,01800,CHARNOZ SUR AIN,Charnoz-sur-Ain,221,45.8736786869,5.2211032563,1,Ain,Auvergne-Rhône-Alpes,2,A2,3
01089,01500,CHATEAU GAILLARD,Château-Gaillard,234,45.9730390239,5.30754273532,1,Ain,Auvergne-Rhône-Alpes,1,C2,3
01090,01320,CHATENAY,Châtenay,291,46.0259402155,5.2048590395,1,Ain,Auvergne-Rhône-Alpes,2,A2,3
01091,01200,CHATILLON EN MICHAILLE,Châtillon-en-Michaille,795,46.1293337743,5.770176021,1,Ain,Auvergne-Rhône-Alpes,1,C2,3
01092,01320,CHATILLON LA PALUD,Châtillon-la-Palud,284,45.9748017433,5.2416027725,1,Ain,Auvergne-Rhône-Alpes,2,A2,3
01093,01400,CHATILLON SUR CHALARONNE,Châtillon-sur-Chalaronne,246,46.1232390685,4.95810003714,1,Ain,Auvergne-Rhône-Alpes,2,A2,2
01094,01190,CHAVANNES SUR REYSSOUZE,Chavannes-sur-Reyssouze,198,46.4379785193,5.00693749662,1,Ain,Auvergne-Rhône-Alpes,2,A2,2
01095,01250,CHAVANNES SUR SURAN,Nivigne et Suran,413,46.2750157946,5.41649423093,1,Ain,Auvergne-Rhône-Alpes,1,C2,3
01096,01660,CHAVEYRIAT,Chaveyriat,228,46.1991513767,5.0564069258,1,Ain,Auvergne-Rhône-Alpes,2,A2,2
01097,01510,CHAVORNAY,Chavornay,671,45.8824049535,5.72499814516,1,Ain,Auvergne-Rhône-Alpes,1,C2,3
01098,01300,CHAZEY BONS,Chazey-Bons,282,45.7925770617,5.68477063188,1,Ain,Auvergne-Rhône-Alpes,1,C2,3
01099,01150,CHAZEY SUR AIN,Chazey-sur-Ain,223,45.8929448968,5.25528498524,1,Ain,Auvergne-Rhône-Alpes,1,C2,3
01100,01510,CHEIGNIEU LA BALME,Cheignieu-la-Balme,527,45.8227204334,5.6050023969,1,Ain,Auvergne-Rhône-Alpes,1,C2,3
01101,01430,CHEVILLARD,Chevillard,833,46.1103512578,5.58116056005,1,Ain,Auvergne-Rhône-Alpes,1,C2,3
01102,01190,CHEVROUX,Chevroux,196,46.38249255,4.96288275972,1,Ain,Auvergne-Rhône-Alpes,2,A2,2
01103,01170,CHEVRY,Chevry,496,46.283152935,6.04707941462,1,Ain,Auvergne-Rhône-Alpes,1,C2,3
01104,01200,CHEZERY FORENS,Chézery-Forens,996,46.222573373,5.87248105275,1,Ain,Auvergne-Rhône-Alpes,1,C2,3
01104,01410,CHEZERY FORENS,Chézery-Forens,996,46.222573373,5.87248105275,1,Ain,Auvergne-Rhône-Alpes,1,C2,3
01105,01390,CIVRIEUX,Civrieux,286,45.922467454,4.88633786877,1,Ain,Auvergne-Rhône-Alpes,2,A2,2
01106,01250,CIZE,Cize,363,46.2003848172,5.45082526739,1,Ain,Auvergne-Rhône-Alpes,1,C2,3
01107,01230,CLEYZIEU,Cleyzieu,658,45.902146623,5.43272695486,1,Ain,Auvergne-Rhône-Alpes,1,C2,3
01108,01270,COLIGNY,Coligny,275,46.3866637865,5.3308227014,1,Ain,Auvergne-Rhône-Alpes,2,A2,3
01109,01550,COLLONGES,Collonges,738,46.1419227898,5.90040256654,1,Ain,Auvergne-Rhône-Alpes,1,C2,3
01110,01300,COLOMIEU,Colomieu,362,45.7361469025,5.62670101041,1,Ain,Auvergne-Rhône-Alpes,1,C2,3
01111,01230,CONAND,Conand,674,45.8834810846,5.47541328981,1,Ain,Auvergne-Rhône-Alpes,1,C2,3
01112,01430,CONDAMINE,Condamine,640,46.105831161,5.55568206762,1,Ain,Auvergne-Rhône-Alpes,1,C2,3
01113,01400,CONDEISSIAT,Condeissiat,252,46.1538469834,5.08437171701,1,Ain,Auvergne-Rhône-Alpes,2,A2,2
01114,01200,CONFORT,Confort,858,46.1543700156,5.83319395258,1,Ain,Auvergne-Rhône-Alpes,1,C2,3
01115,01310,CONFRANCON,Confrançon,209,46.270304175,5.05775217893,1,Ain,Auvergne-Rhône-Alpes,1,A2,2
01116,01300,CONTREVOZ,Contrevoz,472,45.8009403071,5.62087768159,1,Ain,Auvergne-Rhône-Alpes,1,C2,3
01117,01300,CONZIEU,Conzieu,444,45.7253102173,5.60442351043,1,Ain,Auvergne-Rhône-Alpes,1,C2,3
01118,01420,CORBONOD,Corbonod,781,45.9659473187,5.78961970355,1,Ain,Auvergne-Rhône-Alpes,1,C2,3
01121,01110,CORLIER,Corlier,784,46.0336885573,5.49635755029,1,Ain,Auvergne-Rhône-Alpes,1,C2,3
01122,01110,CORMARANCHE EN BUGEY,Cormaranche-en-Bugey,926,45.9442772826,5.60860828487,1,Ain,Auvergne-Rhône-Alpes,1,C2,3
01123,01290,CORMORANCHE SUR SAONE,Cormoranche-sur-Saône,178,46.2403530179,4.8276569593,1,Ain,Auvergne-Rhône-Alpes,2,A2,2
01124,01560,CORMOZ,Cormoz,205,46.4336632942,5.22181275755,1,Ain,Auvergne-Rhône-Alpes,2,A2,2
01125,01250,CORVEISSIAT,Corveissiat,475,46.2505107235,5.47152467919,1,Ain,Auvergne-Rhône-Alpes,1,C2,3
01127,01370,COURMANGOUX,Courmangoux,297,46.3267864521,5.35558241812,1,Ain,Auvergne-Rhône-Alpes,2,A2,3
01128,01560,COURTES,Courtes,208,46.4570082032,5.11128546723,1,Ain,Auvergne-Rhône-Alpes,2,A2,2
01129,01320,CRANS,Crans,296,45.9663793103,5.19490390871,1,Ain,Auvergne-Rhône-Alpes,2,A2,3
01130,01340,CRAS SUR REYSSOUZE,Cras-sur-Reyssouze,210,46.3130831891,5.17796707174,1,Ain,Auvergne-Rhône-Alpes,2,A2,2
01133,01350,CRESSIN ROCHEFORT,Cressin-Rochefort,280,45.7826434885,5.76546256637,1,Ain,Auvergne-Rhône-Alpes,1,C2,3
01134,01290,CROTTET,Crottet,183,46.283072336,4.87747971182,1,Ain,Auvergne-Rhône-Alpes,2,A2,2
01134,01750,CROTTET,Crottet,183,46.283072336,4.87747971182,1,Ain,Auvergne-Rhône-Alpes,2,A2,2
01135,01170,CROZET,Crozet,1016,46.2915659686,5.99510417092,1,Ain,Auvergne-Rhône-Alpes,1,C2,3
01136,01290,CRUZILLES LES MEPILLAT,Cruzilles-lès-Mépillat,208,46.2220588715,4.8752193513,1,Ain,Auvergne-Rhône-Alpes,2,A2,2
01138,01350,CULOZ,Culoz,516,45.8559966843,5.78398308932,1,Ain,Auvergne-Rhône-Alpes,1,C2,3
01139,01560,CURCIAT DONGALON,Curciat-Dongalon,200,46.4885456881,5.16344336837,1,Ain,Auvergne-Rhône-Alpes,2,A2,2
01140,01310,CURTAFOND,Curtafond,216,46.273150382,5.1020896267,1,Ain,Auvergne-Rhône-Alpes,1,A2,2
01141,01300,CUZIEU,Cuzieu,358,45.8200002803,5.6765554896,1,Ain,Auvergne-Rhône-Alpes,1,C2,3
01142,01120,DAGNEUX,Dagneux,220,45.8531616918,5.07289166803,1,Ain,Auvergne-Rhône-Alpes,2,A2,3
01143,01220,DIVONNE LES BAINS,Divonne-les-Bains,810,46.3756333495,6.1158647611,1,Ain,Auvergne-Rhône-Alpes,1,C2,3
01144,01380,DOMMARTIN,Dommartin,200,46.33627762,4.99863894,1,Ain,Auvergne-Rhône-Alpes,2,A2,2
01145,01240,DOMPIERRE SUR VEYLE,Dompierre-sur-Veyle,284,46.0667883703,5.21665199666,1,Ain,Auvergne-Rhône-Alpes,1,A2,3
01146,01400,DOMPIERRE SUR CHALARONNE,Dompierre-sur-Chalaronne,227,46.1415406621,4.90141714714,1,Ain,Auvergne-Rhône-Alpes,2,A2,2
01147,01270,DOMSURE,Domsure,211,46.4244066427,5.29313479651,1,Ain,Auvergne-Rhône-Alpes,2,A2,3
01148,01590,DORTAN,Dortan,478,46.3133221173,5.64146584117,1,Ain,Auvergne-Rhône-Alpes,1,C2,3
01149,01500,DOUVRES,Douvres,325,45.984297392,5.37106901673,1,Ain,Auvergne-Rhône-Alpes,1,C2,3
01150,01250,DROM,Drom,360,46.2196603059,5.36799994918,1,Ain,Auvergne-Rhône-Alpes,1,C2,3
01151,01160,DRUILLAT,Druillat,280,46.067579544,5.29361666429,1,Ain,Auvergne-Rhône-Alpes,1,A2,3
01152,01130,ECHALLON,Échallon,832,46.2271364137,5.73330448395,1,Ain,Auvergne-Rhône-Alpes,1,C2,3
01153,01170,ECHENEVEX,Échenevex,985,46.3160845207,6.01926187996,1,Ain,Auvergne-Rhône-Alpes,1,C2,3
01154,01340,ETREZ,Étrez,219,46.3380891758,5.19286414645,1,Ain,Auvergne-Rhône-Alpes,2,A2,2
01155,01230,EVOSGES,Évosges,831,45.965147537,5.50283599885,1,Ain,Auvergne-Rhône-Alpes,1,C2,3
01156,01800,FARAMANS,Faramans,283,45.9104942091,5.1249258559,1,Ain,Auvergne-Rhône-Alpes,2,A2,3
01157,01480,FAREINS,Fareins,199,46.020997974,4.7620080898,1,Ain,Auvergne-Rhône-Alpes,2,A2,2
01158,01550,FARGES,Farges,774,46.166230455,5.90019477201,1,Ain,Auvergne-Rhône-Alpes,1,C2,3
01159,01570,FEILLENS,Feillens,179,46.3365833672,4.88507050971,1,Ain,Auvergne-Rhône-Alpes,2,A2,2
01160,01210,FERNEY VOLTAIRE,Ferney-Voltaire,422,46.2519789243,6.10826403805,1,Ain,Auvergne-Rhône-Alpes,1,C2,3
01162,01350,FLAXIEU,Flaxieu,252,45.8113298005,5.74459048839,1,Ain,Auvergne-Rhône-Alpes,1,C2,3
01163,01340,FOISSIAT,Foissiat,210,46.3784759782,5.18483641417,1,Ain,Auvergne-Rhône-Alpes,2,A2,2
01165,01090,FRANCHELEINS,Francheleins,231,46.0735946256,4.81293575559,1,Ain,Auvergne-Rhône-Alpes,2,A2,2
01166,01480,FRANS,Frans,240,45.9939065077,4.78033196905,1,Ain,Auvergne-Rhône-Alpes,2,A2,2
01167,01140,GARNERANS,Garnerans,186,46.2136224825,4.82843188743,1,Ain,Auvergne-Rhône-Alpes,2,A2,2
01169,01090,GENOUILLEUX,Genouilleux,201,46.1201611728,4.79288195016,1,Ain,Auvergne-Rhône-Alpes,2,A2,2
01170,01460,BEARD GEOVREISSIAT,Béard-Géovreissiat,533,46.1896733539,5.55139781353,1,Ain,Auvergne-Rhône-Alpes,1,C2,3
01171,01100,GEOVREISSET,Géovreisset,669,46.2508621615,5.61271973915,1,Ain,Auvergne-Rhône-Alpes,1,C2,3
01172,01250,GERMAGNAT,Germagnat,428,46.3054983344,5.45012798616,1,Ain,Auvergne-Rhône-Alpes,1,C2,3
01173,01170,GEX,Gex,949,46.3471891747,6.04650555568,1,Ain,Auvergne-Rhône-Alpes,1,C2,3
01174,01130,GIRON,Giron,1040,46.2227121191,5.78049809256,1,Ain,Auvergne-Rhône-Alpes,1,C2,3
01175,01190,GORREVOD,Gorrevod,186,46.414943437,4.95120595427,1,Ain,Auvergne-Rhône-Alpes,2,A2,2
01177,01250,GRAND CORENT,Grand-Corent,505,46.207387937,5.43318666027,1,Ain,Auvergne-Rhône-Alpes,1,C2,3
01179,01290,GRIEGES,Grièges,177,46.2633634407,4.84621318847,1,Ain,Auvergne-Rhône-Alpes,2,A2,2
01180,01220,GRILLY,Grilly,563,46.3318810665,6.11366767978,1,Ain,Auvergne-Rhône-Alpes,1,C2,3
01181,01100,GROISSIAT,Groissiat,616,46.2260039429,5.61095413441,1,Ain,Auvergne-Rhône-Alpes,1,C2,3
01183,01090,GUEREINS,Guéreins,192,46.106624674,4.78159420118,1,Ain,Auvergne-Rhône-Alpes,2,A2,2
01184,01250,HAUTECOURT ROMANECHE,Hautecourt-Romanèche,382,46.1611241927,5.42944457639,1,Ain,Auvergne-Rhône-Alpes,1,C2,3
01185,01110,HAUTEVILLE LOMPNES,Hauteville-Lompnes,872,45.9696520061,5.57627261783,1,Ain,Auvergne-Rhône-Alpes,1,C2,3
01186,01110,HOSTIAZ,Hostiaz,900,45.9061631889,5.54077986031,1,Ain,Auvergne-Rhône-Alpes,1,C2,3
01187,01260,HAUT VALROMEY,Haut Valromey,1036,46.0317412192,5.70267027388,1,Ain,Auvergne-Rhône-Alpes,1,C2,3
01188,01140,ILLIAT,Illiat,227,46.1866986838,4.88840344003,1,Ain,Auvergne-Rhône-Alpes,2,A2,2
01189,01200,INJOUX GENISSIAT,Injoux-Génissiat,791,46.0497734524,5.75991363273,1,Ain,Auvergne-Rhône-Alpes,1,C2,3
01190,01680,INNIMOND,Innimond,958,45.7919647191,5.57389398559,1,Ain,Auvergne-Rhône-Alpes,1,C2,3
01191,01430,IZENAVE,Izenave,799,46.0381623415,5.52447901164,1,Ain,Auvergne-Rhône-Alpes,1,C2,3
01192,01580,IZERNORE,Izernore,535,46.2179780137,5.56258251719,1,Ain,Auvergne-Rhône-Alpes,1,C2,3
01193,01300,IZIEU,Izieu,459,45.6557496407,5.63909140794,1,Ain,Auvergne-Rhône-Alpes,1,C2,3
01194,01480,JASSANS RIOTTIER,Jassans-Riottier,202,45.9777239103,4.75984637871,1,Ain,Auvergne-Rhône-Alpes,2,A2,2
01195,01250,JASSERON,Jasseron,297,46.2150037064,5.31215372338,1,Ain,Auvergne-Rhône-Alpes,1,C2,3
01196,01340,JAYAT,Jayat,199,46.3660828991,5.11429701617,1,Ain,Auvergne-Rhône-Alpes,2,A2,2
01197,01250,JOURNANS,Journans,356,46.1464982407,5.33452833151,1,Ain,Auvergne-Rhône-Alpes,1,C2,3
01198,01800,JOYEUX,Joyeux,286,45.9499899849,5.10261326872,1,Ain,Auvergne-Rhône-Alpes,2,A2,3
01199,01640,JUJURIEUX,Jujurieux,363,46.0497041467,5.41094771899,1,Ain,Auvergne-Rhône-Alpes,1,C2,3
01200,01450,LABALME,Labalme,709,46.0932491295,5.49438685213,1,Ain,Auvergne-Rhône-Alpes,1,C2,3
01202,01150,LAGNIEU,Lagnieu,265,45.8917015798,5.32917518895,1,Ain,Auvergne-Rhône-Alpes,1,C2,3
01203,01290,LAIZ,Laiz,186,46.2469919709,4.89933490972,1,Ain,Auvergne-Rhône-Alpes,2,A2,2
01204,01130,LE POIZAT LALLEYRIAT,Le Poizat-Lalleyriat,901,46.1479592076,5.71829194244,1,Ain,Auvergne-Rhône-Alpes,1,C2,3
01205,01200,LANCRANS,Lancrans,766,46.1323202721,5.84050985141,1,Ain,Auvergne-Rhône-Alpes,1,C2,3
01206,01430,LANTENAY,Lantenay,782,46.0544405897,5.54127421165,1,Ain,Auvergne-Rhône-Alpes,1,C2,3
01207,01330,LAPEYROUSE,Lapeyrouse,284,45.9859131165,4.98196682865,1,Ain,Auvergne-Rhône-Alpes,2,A2,2
01208,01350,LAVOURS,Lavours,230,45.8108837933,5.77267317838,1,Ain,Auvergne-Rhône-Alpes,1,C2,3
01209,01200,LEAZ,Léaz,635,46.1086518044,5.87649017888,1,Ain,Auvergne-Rhône-Alpes,1,C2,3
01210,01410,LELEX,Lélex,1132,46.2855010936,5.92927713771,1,Ain,Auvergne-Rhône-Alpes,1,C2,3
01211,01240,LENT,Lent,268,46.1160216305,5.20200684747,1,Ain,Auvergne-Rhône-Alpes,1,A2,3
01212,01560,LESCHEROUX,Lescheroux,210,46.4114892731,5.15107164478,1,Ain,Auvergne-Rhône-Alpes,2,A2,2
01213,01150,LEYMENT,Leyment,247,45.9269989549,5.2947657235,1,Ain,Auvergne-Rhône-Alpes,1,C2,3
01214,01450,LEYSSARD,Leyssard,619,46.1624187428,5.47633297491,1,Ain,Auvergne-Rhône-Alpes,1,C2,3
01215,01420,LHOPITAL,Lhôpital,705,46.0238143134,5.76236736492,1,Ain,Auvergne-Rhône-Alpes,1,C2,3
01216,01680,LHUIS,Lhuis,471,45.7444141403,5.53602066955,1,Ain,Auvergne-Rhône-Alpes,1,C2,3
01218,01260,LOCHIEU,Lochieu,920,45.9302479879,5.7413126836,1,Ain,Auvergne-Rhône-Alpes,1,C2,3
01219,01680,LOMPNAS,Lompnas,747,45.8105943351,5.52320457866,1,Ain,Auvergne-Rhône-Alpes,1,C2,3
01221,01260,LOMPNIEU,Lompnieu,790,45.9690865613,5.65968816497,1,Ain,Auvergne-Rhône-Alpes,1,C2,3
01224,01360,LOYETTES,Loyettes,197,45.7921564114,5.21770971647,1,Ain,Auvergne-Rhône-Alpes,2,A2,3
01225,01090,LURCY,Lurcy,201,46.061730034,4.78075207026,1,Ain,Auvergne-Rhône-Alpes,2,A2,2
01227,01300,MAGNIEU,Magnieu,297,45.7754050255,5.71540945601,1,Ain,Auvergne-Rhône-Alpes,1,C2,3
01228,01430,MAILLAT,Maillat,605,46.1201642836,5.52854394238,1,Ain,Auvergne-Rhône-Alpes,1,C2,3
01229,01340,MALAFRETAZ,Malafretaz,203,46.3295545661,5.14386299599,1,Ain,Auvergne-Rhône-Alpes,2,A2,2
01230,01560,MANTENAY MONTLIN,Mantenay-Montlin,206,46.4302754511,5.10675899732,1,Ain,Auvergne-Rhône-Alpes,2,A2,2
01231,01570,MANZIAT,Manziat,184,46.3643830585,4.90242777155,1,Ain,Auvergne-Rhône-Alpes,2,A2,2
01232,01851,MARBOZ,Marboz,217,46.3434312497,5.24374534963,1,Ain,Auvergne-Rhône-Alpes,2,A2,3
01233,01680,MARCHAMP,Marchamp,676,45.7738495266,5.54985181107,1,Ain,Auvergne-Rhône-Alpes,1,C2,3
01234,01300,MARIGNIEU,Marignieu,375,45.8010384947,5.71570352924,1,Ain,Auvergne-Rhône-Alpes,1,C2,3
01235,01240,MARLIEUX,Marlieux,273,46.0549073186,5.0741150816,1,Ain,Auvergne-Rhône-Alpes,1,A2,3
01236,01340,MARSONNAS,Marsonnas,207,46.3409117711,5.06434294764,1,Ain,Auvergne-Rhône-Alpes,2,A2,2
01237,01100,MARTIGNAT,Martignat,689,46.2030768095,5.61384033805,1,Ain,Auvergne-Rhône-Alpes,1,C2,3
01238,01600,MASSIEUX,Massieux,207,45.9094016817,4.82779660051,1,Ain,Auvergne-Rhône-Alpes,2,A2,2
01239,01300,MASSIGNIEU DE RIVES,Massignieu-de-Rives,286,45.7571503942,5.7620535823,1,Ain,Auvergne-Rhône-Alpes,1,C2,3
01240,01580,MATAFELON GRANGES,Matafelon-Granges,445,46.2565319445,5.53958933702,1,Ain,Auvergne-Rhône-Alpes,1,C2,3
01241,01370,MEILLONNAS,Meillonnas,289,46.244997627,5.33594738489,1,Ain,Auvergne-Rhône-Alpes,2,A2,3
01242,01450,MERIGNAT,Mérignat,452,46.0648564341,5.44210660051,1,Ain,Auvergne-Rhône-Alpes,1,C2,3
01243,01480,MESSIMY SUR SAONE,Messimy-sur-Saône,184,46.0472670758,4.75935643933,1,Ain,Auvergne-Rhône-Alpes,2,A2,2
01244,01800,MEXIMIEUX,Meximieux,241,45.9060530318,5.20404833653,1,Ain,Auvergne-Rhône-Alpes,2,A2,3
01245,01250,BOHAS MEYRIAT RIGNAT,Bohas-Meyriat-Rignat,339,46.1427060662,5.3780109646,1,Ain,Auvergne-Rhône-Alpes,1,C2,3
01246,01660,MEZERIAT,Mézériat,204,46.2423102101,5.04725416984,1,Ain,Auvergne-Rhône-Alpes,2,A2,2
01247,01170,MIJOUX,Mijoux,1198,46.3622451724,6.00902631941,1,Ain,Auvergne-Rhône-Alpes,1,C2,3
01247,01410,MIJOUX,Mijoux,1198,46.3622451724,6.00902631941,1,Ain,Auvergne-Rhône-Alpes,1,C2,3
01248,01390,MIONNAY,Mionnay,289,45.8955939299,4.92416967439,1,Ain,Auvergne-Rhône-Alpes,2,A2,2
01249,01700,MIRIBEL,Miribel,260,45.8442099203,4.94106746787,1,Ain,Auvergne-Rhône-Alpes,2,A2,2
01250,01600,MISERIEUX,Misérieux,245,45.9762325343,4.81028471711,1,Ain,Auvergne-Rhône-Alpes,2,A2,2
01252,01140,MOGNENEINS,Mogneneins,206,46.1446696076,4.820110702,1,Ain,Auvergne-Rhône-Alpes,2,A2,2
01254,01250,MONTAGNAT,Montagnat,248,46.1686969123,5.27962107938,1,Ain,Auvergne-Rhône-Alpes,1,C2,3
01255,01470,MONTAGNIEU,Montagnieu,379,45.799449019,5.46428608859,1,Ain,Auvergne-Rhône-Alpes,1,C2,3
01257,01200,MONTANGES,Montanges,712,46.17325293,5.79006091307,1,Ain,Auvergne-Rhône-Alpes,1,C2,3
01258,01090,MONTCEAUX,Montceaux,222,46.0962893261,4.80453564172,1,Ain,Auvergne-Rhône-Alpes,2,A2,2
01259,01310,MONTCET,Montcet,217,46.219333227,5.11149132074,1,Ain,Auvergne-Rhône-Alpes,1,A2,2
01260,01800,LE MONTELLIER,Le Montellier,283,45.9287482486,5.07092815964,1,Ain,Auvergne-Rhône-Alpes,2,A2,3
01261,01390,MONTHIEUX,Monthieux,290,45.9622791838,4.94555984534,1,Ain,Auvergne-Rhône-Alpes,2,A2,2
01262,01120,MONTLUEL,Montluel,279,45.8909006209,5.01987566185,1,Ain,Auvergne-Rhône-Alpes,2,A2,3
01263,01090,MONTMERLE SUR SAONE,Montmerle-sur-Saône,185,46.0849573236,4.7608579486,1,Ain,Auvergne-Rhône-Alpes,2,A2,2
01264,01310,MONTRACOL,Montracol,236,46.1867200301,5.11706011755,1,Ain,Auvergne-Rhône-Alpes,1,A2,2
01265,01460,MONTREAL LA CLUSE,Montréal-la-Cluse,661,46.1795688194,5.59510550127,1,Ain,Auvergne-Rhône-Alpes,1,C2,3
01266,01340,MONTREVEL EN BRESSE,Montrevel-en-Bresse,206,46.3252811442,5.11295966315,1,Ain,Auvergne-Rhône-Alpes,2,A2,2
01267,01460,NURIEUX VOLOGNAT,Nurieux-Volognat,627,46.1830720992,5.51435812316,1,Ain,Auvergne-Rhône-Alpes,1,C2,3
01268,01300,MURS ET GELIGNIEUX,Murs-et-Gélignieux,258,45.6420014274,5.66039684889,1,Ain,Auvergne-Rhône-Alpes,1,C2,3
01269,01130,NANTUA,Nantua,720,46.1537845403,5.61352793799,1,Ain,Auvergne-Rhône-Alpes,1,C2,3
01269,01460,NANTUA,Nantua,720,46.1537845403,5.61352793799,1,Ain,Auvergne-Rhône-Alpes,1,C2,3
01272,01400,NEUVILLE LES DAMES,Neuville-les-Dames,243,46.1567753049,5.00942432434,1,Ain,Auvergne-Rhône-Alpes,2,A2,2
01273,01160,NEUVILLE SUR AIN,Neuville-sur-Ain,295,46.0909654813,5.37349784691,1,Ain,Auvergne-Rhône-Alpes,1,A2,3
01274,01130,LES NEYROLLES,Les Neyrolles,832,46.1342937114,5.63714517869,1,Ain,Auvergne-Rhône-Alpes,1,C2,3
01275,01700,NEYRON,Neyron,241,45.8184192468,4.9309045685,1,Ain,Auvergne-Rhône-Alpes,2,A2,2
01276,01120,NIEVROZ,Niévroz,183,45.8222941077,5.05949629195,1,Ain,Auvergne-Rhône-Alpes,2,A2,3
01277,01230,NIVOLLET MONTGRIFFON,Nivollet-Montgriffon,673,45.9999448244,5.45847815374,1,Ain,Auvergne-Rhône-Alpes,1,C2,3
01279,01230,ONCIEU,Oncieu,546,45.9651165469,5.47146617499,1,Ain,Auvergne-Rhône-Alpes,1,C2,3
01280,01510,ORDONNAZ,Ordonnaz,884,45.8339690378,5.5395794296,1,Ain,Auvergne-Rhône-Alpes,1,C2,3
01281,01210,ORNEX,Ornex,469,46.2774557513,6.09454723599,1,Ain,Auvergne-Rhône-Alpes,1,C2,3
01282,01430,OUTRIAZ,Outriaz,806,46.067796636,5.55697547429,1,Ain,Auvergne-Rhône-Alpes,1,C2,3
01283,01100,OYONNAX,Oyonnax,667,46.2605435859,5.65344320923,1,Ain,Auvergne-Rhône-Alpes,1,C2,3
01284,01190,OZAN,Ozan,187,46.3867168877,4.91805840196,1,Ain,Auvergne-Rhône-Alpes,2,A2,2
01285,01600,PARCIEUX,Parcieux,211,45.9184267932,4.82747423402,1,Ain,Auvergne-Rhône-Alpes,2,A2,2
01286,01300,PARVES ET NATTAGES,Parves et Nattages,486,45.7437340183,5.73800737134,1,Ain,Auvergne-Rhône-Alpes,1,C2,3
01288,01630,PERON,Péron,750,46.1913554154,5.91968751164,1,Ain,Auvergne-Rhône-Alpes,1,C2,3
01289,01960,PERONNAS,Péronnas,251,46.1711903413,5.21802169564,1,Ain,Auvergne-Rhône-Alpes,1,A2,3
01290,01800,PEROUGES,Pérouges,227,45.8803945768,5.17955874977,1,Ain,Auvergne-Rhône-Alpes,2,A2,3
01291,01540,PERREX,Perrex,197,46.2465065604,4.97464940331,1,Ain,Auvergne-Rhône-Alpes,2,A2,2
01293,01430,PEYRIAT,Peyriat,693,46.1498184067,5.50572312284,1,Ain,Auvergne-Rhône-Alpes,1,C2,3
01294,01300,PEYRIEU,Peyrieu,307,45.6762428663,5.67912809192,1,Ain,Auvergne-Rhône-Alpes,1,C2,3
01295,01140,PEYZIEUX SUR SAONE,Peyzieux-sur-Saône,226,46.1226331853,4.82243226719,1,Ain,Auvergne-Rhône-Alpes,2,A2,2
01296,01270,PIRAJOUX,Pirajoux,211,46.385801285,5.27417594024,1,Ain,Auvergne-Rhône-Alpes,2,A2,3
01297,01120,PIZAY,Pizay,279,45.8928509581,5.08915465965,1,Ain,Auvergne-Rhône-Alpes,2,A2,3
01298,01130,PLAGNE,Plagne,787,46.1883038423,5.71763811249,1,Ain,Auvergne-Rhône-Alpes,1,C2,3
01299,01330,LE PLANTAY,Le Plantay,278,46.0230264227,5.08912046926,1,Ain,Auvergne-Rhône-Alpes,2,A2,2
01301,01310,POLLIAT,Polliat,217,46.2463108642,5.13794412439,1,Ain,Auvergne-Rhône-Alpes,1,A2,2
01302,01350,POLLIEU,Pollieu,278,45.7965373468,5.74794515549,1,Ain,Auvergne-Rhône-Alpes,1,C2,3
01303,01450,PONCIN,Poncin,340,46.089530586,5.41681266947,1,Ain,Auvergne-Rhône-Alpes,1,C2,3
01304,01160,PONT D AIN,Pont-d'Ain,256,46.0542077091,5.34703652618,1,Ain,Auvergne-Rhône-Alpes,1,A2,3
01305,01190,PONT DE VAUX,Pont-de-Vaux,175,46.4422864477,4.92862459427,1,Ain,Auvergne-Rhône-Alpes,2,A2,2
01306,01290,PONT DE VEYLE,Pont-de-Veyle,175,46.2637215091,4.88186068102,1,Ain,Auvergne-Rhône-Alpes,2,A2,2
01307,01460,PORT,Port,636,46.155963139,5.57615832883,1,Ain,Auvergne-Rhône-Alpes,1,C2,3
01308,01550,POUGNY,Pougny,387,46.1450914685,5.95100479291,1,Ain,Auvergne-Rhône-Alpes,1,C2,3
01309,01250,POUILLAT,Pouillat,464,46.3219301481,5.42318000482,1,Ain,Auvergne-Rhône-Alpes,1,C2,3
01310,01300,PREMEYZEL,Prémeyzel,367,45.6806263123,5.64396081449,1,Ain,Auvergne-Rhône-Alpes,1,C2,3
01311,01110,PREMILLIEU,Prémillieu,885,45.876457149,5.56475010385,1,Ain,Auvergne-Rhône-Alpes,1,C2,3
01313,01280,PREVESSIN MOENS,Prévessin-Moëns,458,46.25827228,6.07223251859,1,Ain,Auvergne-Rhône-Alpes,1,C2,3
01314,01160,PRIAY,Priay,284,46.0197521486,5.28523353803,1,Ain,Auvergne-Rhône-Alpes,1,A2,3
01316,01510,PUGIEU,Pugieu,289,45.8176794806,5.64970405499,1,Ain,Auvergne-Rhône-Alpes,1,C2,3
01317,01250,RAMASSE,Ramasse,394,46.1905550894,5.35572056985,1,Ain,Auvergne-Rhône-Alpes,1,C2,3
01318,01390,RANCE,Rancé,277,45.9673905154,4.86343025951,1,Ain,Auvergne-Rhône-Alpes,2,A2,2
01319,01990,RELEVANT,Relevant,269,46.0843657897,4.94176845356,1,Ain,Auvergne-Rhône-Alpes,2,A2,2
01320,01750,REPLONGES,Replonges,179,46.3077356023,4.8746938271,1,Ain,Auvergne-Rhône-Alpes,2,A2,2
01321,01250,REVONNAS,Revonnas,358,46.1615355815,5.33543916388,1,Ain,Auvergne-Rhône-Alpes,1,C2,3
01322,01600,REYRIEUX,Reyrieux,237,45.9367652442,4.82840395968,1,Ain,Auvergne-Rhône-Alpes,2,A2,2
01323,01190,REYSSOUZE,Reyssouze,181,46.4285569061,4.91285056272,1,Ain,Auvergne-Rhône-Alpes,2,A2,2
01325,01800,RIGNIEUX LE FRANC,Rignieux-le-Franc,285,45.9518762734,5.16936671105,1,Ain,Auvergne-Rhône-Alpes,2,A2,3
01328,01400,ROMANS,Romans,260,46.1237520756,5.0217131176,1,Ain,Auvergne-Rhône-Alpes,2,A2,2
01329,01510,ROSSILLON,Rossillon,639,45.8363854589,5.59926863007,1,Ain,Auvergne-Rhône-Alpes,1,C2,3
01330,01260,RUFFIEU,Ruffieu,889,46.0037108867,5.65322391497,1,Ain,Auvergne-Rhône-Alpes,1,C2,3
01331,01450,ST ALBAN,Saint-Alban,521,46.0983335519,5.45573839846,1,Ain,Auvergne-Rhône-Alpes,1,C2,3
01332,01380,ST ANDRE DE BAGE,Saint-André-de-Bâgé,204,46.298541568,4.91411565769,1,Ain,Auvergne-Rhône-Alpes,2,A2,2
01333,01390,ST ANDRE DE CORCY,Saint-André-de-Corcy,291,45.927001954,4.95373324492,1,Ain,Auvergne-Rhône-Alpes,2,A2,2
01334,01290,ST ANDRE D HUIRIAT,Saint-André-d'Huiriat,207,46.2140960915,4.91291358797,1,Ain,Auvergne-Rhône-Alpes,2,A2,2
01335,01240,ST ANDRE LE BOUCHOUX,Saint-André-le-Bouchoux,268,46.1131399612,5.0802376895,1,Ain,Auvergne-Rhône-Alpes,1,A2,3
01336,01960,ST ANDRE SUR VIEUX JONC,Saint-André-sur-Vieux-Jonc,253,46.1492410532,5.14175200148,1,Ain,Auvergne-Rhône-Alpes,1,A2,3
01337,01190,ST BENIGNE,Saint-Bénigne,190,46.4519173207,4.95309825903,1,Ain,Auvergne-Rhône-Alpes,2,A2,2
01338,01300,GROSLEE ST BENOIT,Groslée-Saint-Benoit,284,45.6891842277,5.5843972561,1,Ain,Auvergne-Rhône-Alpes,1,C2,3
01338,01680,GROSLEE ST BENOIT,Groslée-Saint-Benoit,284,45.6891842277,5.5843972561,1,Ain,Auvergne-Rhône-Alpes,1,C2,3
01339,01600,ST BERNARD,Saint-Bernard,181,45.9493830581,4.74276628471,1,Ain,Auvergne-Rhône-Alpes,2,A2,2
01341,01300,ST CHAMP,Saint-Champ,355,45.7825741014,5.7326531461,1,Ain,Auvergne-Rhône-Alpes,1,C2,3
01342,01120,STE CROIX,Sainte-Croix,275,45.895522477,5.04935536228,1,Ain,Auvergne-Rhône-Alpes,2,A2,3
01343,01380,ST CYR SUR MENTHON,Saint-Cyr-sur-Menthon,203,46.2754005606,4.96757105158,1,Ain,Auvergne-Rhône-Alpes,2,A2,2
01344,01000,ST DENIS LES BOURG,Saint-Denis-lès-Bourg,228,46.2111998453,5.18462806771,1,Ain,Auvergne-Rhône-Alpes,1,A2,3
01345,01500,ST DENIS EN BUGEY,Saint-Denis-en-Bugey,250,45.9488551151,5.32367701698,1,Ain,Auvergne-Rhône-Alpes,1,C2,3
01346,01340,ST DIDIER D AUSSIAT,Saint-Didier-d'Aussiat,211,46.3069992095,5.05820697692,1,Ain,Auvergne-Rhône-Alpes,2,A2,2
01347,01600,ST DIDIER DE FORMANS,Saint-Didier-de-Formans,221,45.9564926067,4.77766764875,1,Ain,Auvergne-Rhône-Alpes,2,A2,2
01348,01140,ST DIDIER SUR CHALARONNE,Saint-Didier-sur-Chalaronne,182,46.1840408682,4.81645666173,1,Ain,Auvergne-Rhône-Alpes,2,A2,2
01349,01800,ST ELOI,Saint-Éloi,284,45.9322494861,5.15187041178,1,Ain,Auvergne-Rhône-Alpes,2,A2,3
01350,01370,ST ETIENNE DU BOIS,Saint-Étienne-du-Bois,241,46.2749447261,5.28428557632,1,Ain,Auvergne-Rhône-Alpes,2,A2,3
01351,01140,ST ETIENNE SUR CHALARONNE,Saint-Étienne-sur-Chalaronne,219,46.1468059584,4.86696454244,1,Ain,Auvergne-Rhône-Alpes,2,A2,2
01352,01190,ST ETIENNE SUR REYSSOUZE,Saint-Étienne-sur-Reyssouze,190,46.4030398952,5.00605581573,1,Ain,Auvergne-Rhône-Alpes,2,A2,2
01353,01600,STE EUPHEMIE,Sainte-Euphémie,232,45.9669798317,4.79478189169,1,Ain,Auvergne-Rhône-Alpes,2,A2,2
01354,01630,ST GENIS POUILLY,Saint-Genis-Pouilly,452,46.254539333,6.0362907345,1,Ain,Auvergne-Rhône-Alpes,1,C2,3
01355,01380,ST GENIS SUR MENTHON,Saint-Genis-sur-Menthon,203,46.2815955593,5.01311826405,1,Ain,Auvergne-Rhône-Alpes,2,A2,2
01356,01400,ST GEORGES SUR RENON,Saint-Georges-sur-Renon,265,46.1037951263,5.03001967494,1,Ain,Auvergne-Rhône-Alpes,2,A2,2
01357,01130,ST GERMAIN DE JOUX,Saint-Germain-de-Joux,706,46.1821955394,5.74672259773,1,Ain,Auvergne-Rhône-Alpes,1,C2,3
01358,01300,ST GERMAIN LES PAROISSES,Saint-Germain-les-Paroisses,467,45.7709749249,5.61753440834,1,Ain,Auvergne-Rhône-Alpes,1,C2,3
01359,01240,ST GERMAIN SUR RENON,Saint-Germain-sur-Renon,270,46.0797285417,5.06090903982,1,Ain,Auvergne-Rhône-Alpes,1,A2,3
01360,01630,ST JEAN DE GONVILLE,Saint-Jean-de-Gonville,765,46.2178585727,5.94203093769,1,Ain,Auvergne-Rhône-Alpes,1,C2,3
01361,01800,ST JEAN DE NIOST,Saint-Jean-de-Niost,216,45.8405002569,5.21167430462,1,Ain,Auvergne-Rhône-Alpes,2,A2,3
01362,01390,ST JEAN DE THURIGNEUX,Saint-Jean-de-Thurigneux,288,45.9598424323,4.89936410681,1,Ain,Auvergne-Rhône-Alpes,2,A2,2
01363,01640,ST JEAN LE VIEUX,Saint-Jean-le-Vieux,292,46.0291437714,5.38252835538,1,Ain,Auvergne-Rhône-Alpes,1,C2,3
01364,01560,ST JEAN SUR REYSSOUZE,Saint-Jean-sur-Reyssouze,198,46.3972479854,5.06297763777,1,Ain,Auvergne-Rhône-Alpes,2,A2,2
01365,01290,ST JEAN SUR VEYLE,Saint-Jean-sur-Veyle,193,46.2683632132,4.92198366998,1,Ain,Auvergne-Rhône-Alpes,2,A2,2
01366,01150,STE JULIE,Sainte-Julie,224,45.8819723176,5.28452304614,1,Ain,Auvergne-Rhône-Alpes,1,C2,3
01367,01560,ST JULIEN SUR REYSSOUZE,Saint-Julien-sur-Reyssouze,196,46.3997655501,5.10354296019,1,Ain,Auvergne-Rhône-Alpes,2,A2,2
01368,01540,ST JULIEN SUR VEYLE,Saint-Julien-sur-Veyle,211,46.2014862081,4.959356342,1,Ain,Auvergne-Rhône-Alpes,2,A2,2
01369,01250,ST JUST,Saint-Just,255,46.1929758576,5.28494181398,1,Ain,Auvergne-Rhône-Alpes,1,C2,3
01370,01750,ST LAURENT SUR SAONE,Saint-Laurent-sur-Saône,171,46.3051486294,4.83949202669,1,Ain,Auvergne-Rhône-Alpes,2,A2,2
01371,01390,ST MARCEL,Saint-Marcel,285,45.9485803654,4.9896671017,1,Ain,Auvergne-Rhône-Alpes,2,A2,2
01372,01510,ST MARTIN DE BAVEL,Saint-Martin-de-Bavel,346,45.848212674,5.67889099153,1,Ain,Auvergne-Rhône-Alpes,1,C2,3
01373,01430,ST MARTIN DU FRENE,Saint-Martin-du-Frêne,688,46.135983782,5.57106016428,1,Ain,Auvergne-Rhône-Alpes,1,C2,3
01374,01160,ST MARTIN DU MONT,Saint-Martin-du-Mont,318,46.1061500835,5.32551470817,1,Ain,Auvergne-Rhône-Alpes,1,A2,3
01375,01310,ST MARTIN LE CHATEL,Saint-Martin-le-Châtel,214,46.291445874,5.12291715091,1,Ain,Auvergne-Rhône-Alpes,1,A2,2
01376,01700,ST MAURICE DE BEYNOST,Saint-Maurice-de-Beynost,230,45.8343709108,4.97726215174,1,Ain,Auvergne-Rhône-Alpes,2,A2,2
01378,01800,ST MAURICE DE GOURDANS,Saint-Maurice-de-Gourdans,203,45.8200191939,5.16980415584,1,Ain,Auvergne-Rhône-Alpes,2,A2,3
01379,01500,ST MAURICE DE REMENS,Saint-Maurice-de-Rémens,224,45.9527471237,5.2708276475,1,Ain,Auvergne-Rhône-Alpes,1,C2,3
01380,01560,ST NIZIER LE BOUCHOUX,Saint-Nizier-le-Bouchoux,208,46.4528537121,5.1759906585,1,Ain,Auvergne-Rhône-Alpes,2,A2,2
01381,01320,ST NIZIER LE DESERT,Saint-Nizier-le-Désert,281,46.052861561,5.14246131764,1,Ain,Auvergne-Rhône-Alpes,2,A2,3
01382,01330,STE OLIVE,Sainte-Olive,289,46.0142006121,4.93624894982,1,Ain,Auvergne-Rhône-Alpes,2,A2,2
01383,01240,ST PAUL DE VARAX,Saint-Paul-de-Varax,268,46.0956691617,5.12762470203,1,Ain,Auvergne-Rhône-Alpes,1,A2,3
01384,01230,ST RAMBERT EN BUGEY,Saint-Rambert-en-Bugey,553,45.9504631708,5.44017084612,1,Ain,Auvergne-Rhône-Alpes,1,C2,3
01385,01310,ST REMY,Saint-Rémy,237,46.1846642149,5.16771354778,1,Ain,Auvergne-Rhône-Alpes,1,A2,2
01386,01150,ST SORLIN EN BUGEY,Saint-Sorlin-en-Bugey,376,45.886308438,5.37608915006,1,Ain,Auvergne-Rhône-Alpes,1,C2,3
01387,01340,ST SULPICE,Saint-Sulpice,207,46.3209806116,5.04148389346,1,Ain,Auvergne-Rhône-Alpes,2,A2,2
01388,01560,ST TRIVIER DE COURTES,Saint-Trivier-de-Courtes,206,46.4612969335,5.06679195727,1,Ain,Auvergne-Rhône-Alpes,2,A2,2
01389,01990,ST TRIVIER SUR MOIGNANS,Saint-Trivier-sur-Moignans,266,46.0618477991,4.90158948884,1,Ain,Auvergne-Rhône-Alpes,2,A2,2
01390,01150,ST VULBAS,Saint-Vulbas,206,45.8222315102,5.27019602929,1,Ain,Auvergne-Rhône-Alpes,1,C2,3
01391,01270,SALAVRE,Salavre,315,46.3635396668,5.34742387197,1,Ain,Auvergne-Rhône-Alpes,2,A2,3
01392,01580,SAMOGNAT,Samognat,487,46.2648715781,5.58607689306,1,Ain,Auvergne-Rhône-Alpes,1,C2,3
01393,01400,SANDRANS,Sandrans,275,46.0656961548,4.98282673172,1,Ain,Auvergne-Rhône-Alpes,2,A2,2
01396,01150,SAULT BRENAZ,Sault-Brénaz,300,45.8654038798,5.40416104083,1,Ain,Auvergne-Rhône-Alpes,1,C2,3
01397,01220,SAUVERNY,Sauverny,484,46.3126908233,6.11043836433,1,Ain,Auvergne-Rhône-Alpes,1,C2,3
01398,01480,SAVIGNEUX,Savigneux,270,45.997346828,4.8576200906,1,Ain,Auvergne-Rhône-Alpes,2,A2,2
01399,01170,SEGNY,Ségny,484,46.2935928404,6.07287743792,1,Ain,Auvergne-Rhône-Alpes,1,C2,3
01400,01470,SEILLONNAZ,Seillonnaz,530,45.7976976614,5.49810658524,1,Ain,Auvergne-Rhône-Alpes,1,C2,3
01401,01630,SERGY,Sergy,798,46.2626243003,5.98914553194,1,Ain,Auvergne-Rhône-Alpes,1,C2,3
01402,01190,SERMOYER,Sermoyer,185,46.4981991944,4.97856020441,1,Ain,Auvergne-Rhône-Alpes,2,A2,2
01403,01470,SERRIERES DE BRIORD,Serrières-de-Briord,250,45.8133219416,5.44125880379,1,Ain,Auvergne-Rhône-Alpes,1,C2,3
01404,01450,SERRIERES SUR AIN,Serrières-sur-Ain,385,46.1466977757,5.45023362942,1,Ain,Auvergne-Rhône-Alpes,1,C2,3
01405,01960,SERVAS,Servas,262,46.1385540577,5.17887070992,1,Ain,Auvergne-Rhône-Alpes,1,A2,3
01406,01560,SERVIGNAT,Servignat,194,46.4346497878,5.05559973107,1,Ain,Auvergne-Rhône-Alpes,2,A2,2
01407,01420,SEYSSEL,Seyssel,292,45.9484118176,5.82616979887,1,Ain,Auvergne-Rhône-Alpes,1,C2,3
01408,01250,SIMANDRE SUR SURAN,Simandre-sur-Suran,371,46.2340471594,5.42240815305,1,Ain,Auvergne-Rhône-Alpes,1,C2,3
01410,01580,SONTHONNAX LA MONTAGNE,Sonthonnax-la-Montagne,638,46.2229768712,5.50566888767,1,Ain,Auvergne-Rhône-Alpes,1,C2,3
01411,01150,SOUCLIN,Souclin,716,45.8781798572,5.43058627512,1,Ain,Auvergne-Rhône-Alpes,1,C2,3
01412,01400,SULIGNAT,Sulignat,247,46.1735383313,4.95772382526,1,Ain,Auvergne-Rhône-Alpes,2,A2,2
01413,01420,SURJOUX,Surjoux,397,46.030402108,5.79957920623,1,Ain,Auvergne-Rhône-Alpes,1,C2,3
01414,01260,SUTRIEU,Sutrieu,696,45.9311367808,5.64988248129,1,Ain,Auvergne-Rhône-Alpes,1,C2,3
01415,01510,TALISSIEU,Talissieu,267,45.8637167128,5.72090411074,1,Ain,Auvergne-Rhône-Alpes,1,C2,3
01416,01230,TENAY,Tenay,594,45.922698278,5.51453923595,1,Ain,Auvergne-Rhône-Alpes,1,C2,3
01417,01110,THEZILLIEU,Thézillieu,897,45.8931883593,5.59700638944,1,Ain,Auvergne-Rhône-Alpes,1,C2,3
01418,01120,THIL,Thil,178,45.8169214201,5.0184098869,1,Ain,Auvergne-Rhône-Alpes,2,A2,3
01419,01710,THOIRY,Thoiry,844,46.2435475879,5.96506297987,1,Ain,Auvergne-Rhône-Alpes,1,C2,3
01420,01140,THOISSEY,Thoissey,171,46.1700943481,4.79387095814,1,Ain,Auvergne-Rhône-Alpes,2,A2,2
01421,01230,TORCIEU,Torcieu,439,45.92125055,5.40400282244,1,Ain,Auvergne-Rhône-Alpes,1,C2,3
01422,01250,TOSSIAT,Tossiat,269,46.1384790158,5.30400055922,1,Ain,Auvergne-Rhône-Alpes,1,C2,3
01423,01600,TOUSSIEUX,Toussieux,255,45.959898291,4.82898610612,1,Ain,Auvergne-Rhône-Alpes,2,A2,2
01424,01390,TRAMOYES,Tramoyes,285,45.8745670311,4.9639268325,1,Ain,Auvergne-Rhône-Alpes,2,A2,2
01425,01160,LA TRANCLIERE,La Tranclière,273,46.0970027075,5.26099875456,1,Ain,Auvergne-Rhône-Alpes,1,A2,3
01426,01370,VAL REVERMONT,Val-Revermont,317,46.2803281838,5.36083165162,1,Ain,Auvergne-Rhône-Alpes,2,A2,3
01427,01600,TREVOUX,Trévoux,188,45.940671655,4.7714415007,1,Ain,Auvergne-Rhône-Alpes,2,A2,2
01428,01140,VALEINS,Valeins,253,46.1146467438,4.86551696868,1,Ain,Auvergne-Rhône-Alpes,2,A2,2
01429,01660,VANDEINS,Vandeins,220,46.217806795,5.08189056957,1,Ain,Auvergne-Rhône-Alpes,2,A2,2
01430,01160,VARAMBON,Varambon,292,46.0433928197,5.2947944594,1,Ain,Auvergne-Rhône-Alpes,1,A2,3
01431,01150,VAUX EN BUGEY,Vaux-en-Bugey,390,45.9201205456,5.36353184193,1,Ain,Auvergne-Rhône-Alpes,1,C2,3
01432,01270,VERJON,Verjon,268,46.3459093717,5.34853019646,1,Ain,Auvergne-Rhône-Alpes,2,A2,3
01433,01560,VERNOUX,Vernoux,203,46.4848229774,5.10590413121,1,Ain,Auvergne-Rhône-Alpes,2,A2,2
01434,01330,VERSAILLEUX,Versailleux,283,45.9854373478,5.11204819151,1,Ain,Auvergne-Rhône-Alpes,2,A2,2
01435,01210,VERSONNEX,Versonnex,477,46.2997631425,6.10057952207,1,Ain,Auvergne-Rhône-Alpes,1,C2,3
01436,01170,VESANCY,Vesancy,962,46.3610768127,6.08470665475,1,Ain,Auvergne-Rhône-Alpes,1,C2,3
01437,01560,VESCOURS,Vescours,207,46.4743960759,5.02617426573,1,Ain,Auvergne-Rhône-Alpes,2,A2,2
01439,01570,VESINES,Vésines,171,46.3593397751,4.86265852202,1,Ain,Auvergne-Rhône-Alpes,2,A2,2
01441,01430,VIEU D IZENAVE,Vieu-d'Izenave,747,46.0853386653,5.54922100161,1,Ain,Auvergne-Rhône-Alpes,1,C2,3
01442,01260,VIEU,Vieu,434,45.8898392612,5.68999399947,1,Ain,Auvergne-Rhône-Alpes,1,C2,3
01443,01330,VILLARS LES DOMBES,Villars-les-Dombes,279,45.9927150222,5.04507856642,1,Ain,Auvergne-Rhône-Alpes,2,A2,2
01444,01150,VILLEBOIS,Villebois,510,45.8485624628,5.44711117486,1,Ain,Auvergne-Rhône-Alpes,1,C2,3
01445,01270,VILLEMOTIER,Villemotier,221,46.3458538978,5.31036160991,1,Ain,Auvergne-Rhône-Alpes,2,A2,3
01446,01480,VILLENEUVE,Villeneuve,265,46.0319048788,4.85182526102,1,Ain,Auvergne-Rhône-Alpes,2,A2,2
01447,01250,VILLEREVERSURE,Villereversure,322,46.1926750369,5.3947679407,1,Ain,Auvergne-Rhône-Alpes,1,C2,3
01448,01200,VILLES,Villes,898,46.0954293058,5.7569250415,1,Ain,Auvergne-Rhône-Alpes,1,C2,3
01449,01320,VILLETTE SUR AIN,Villette-sur-Ain,292,46.0099989032,5.25214547187,1,Ain,Auvergne-Rhône-Alpes,2,A2,3
01450,01800,VILLIEU LOYES MOLLON,Villieu-Loyes-Mollon,251,45.932014998,5.22953071636,1,Ain,Auvergne-Rhône-Alpes,2,A2,3
01451,01440,VIRIAT,Viriat,230,46.2508985632,5.22302249216,1,Ain,Auvergne-Rhône-Alpes,1,A2,3
01452,01510,VIRIEU LE GRAND,Virieu-le-Grand,518,45.8464417872,5.63971940347,1,Ain,Auvergne-Rhône-Alpes,1,C2,3
01453,01260,VIRIEU LE PETIT,Virieu-le-Petit,893,45.9063608209,5.73707051523,1,Ain,Auvergne-Rhône-Alpes,1,C2,3
01454,01300,VIRIGNIN,Virignin,275,45.7267387762,5.71282330936,1,Ain,Auvergne-Rhône-Alpes,1,C2,3
01456,01350,VONGNES,Vongnes,345,45.8129059524,5.72536666767,1,Ain,Auvergne-Rhône-Alpes,1,C2,3
01457,01540,VONNAS,Vonnas,202,46.2168871367,4.99744373712,1,Ain,Auvergne-Rhône-Alpes,2,A2,2
02001,02300,ABBECOURT,Abbécourt,47,49.5991518653,3.17708232927,2,Aisne,Hauts-de-France,2,A1,1
02002,02800,ACHERY,Achery,65,49.6936187791,3.39735632148,2,Aisne,Hauts-de-France,2,A1,1
02003,02200,ACY,Acy,120,49.3471963534,3.41817609834,2,Aisne,Hauts-de-France,2,A1,1
02004,02340,AGNICOURT ET SECHELLES,Agnicourt-et-Séchelles,133,49.7166573626,3.96043211816,2,Aisne,Hauts-de-France,2,A1,1
02005,02190,AGUILCOURT,Aguilcourt,71,49.393650796,3.96803679426,2,Aisne,Hauts-de-France,2,A1,1
02006,02110,AISONVILLE ET BERNOVILLE,Aisonville-et-Bernoville,142,49.930148162,3.51120205593,2,Aisne,Hauts-de-France,2,A1,2
02007,02820,AIZELLES,Aizelles,101,49.4848002918,3.81870255331,2,Aisne,Hauts-de-France,2,A1,1
02008,02370,AIZY JOUY,Aizy-Jouy,144,49.4384256824,3.51149185429,2,Aisne,Hauts-de-France,2,A1,1
02009,02240,ALAINCOURT,Alaincourt,77,49.7667120841,3.36639043616,2,Aisne,Hauts-de-France,2,A1,1
02010,02320,ALLEMANT,Allemant,128,49.4624440593,3.45394275872,2,Aisne,Hauts-de-France,2,A1,1
02011,02290,AMBLENY,Ambleny,101,49.3762672939,3.18334679178,2,Aisne,Hauts-de-France,2,A1,1
02012,02200,AMBRIEF,Ambrief,148,49.3215250088,3.40362196255,2,Aisne,Hauts-de-France,2,A1,1
02013,02190,AMIFONTAINE,Amifontaine,92,49.498787026,3.92278993322,2,Aisne,Hauts-de-France,2,A1,1
02014,02700,AMIGNY ROUY,Amigny-Rouy,74,49.6108275885,3.30289341579,2,Aisne,Hauts-de-France,2,A1,1
02015,02600,ANCIENVILLE,Ancienville,119,49.2186389559,3.20808809779,2,Aisne,Hauts-de-France,2,A1,1
02016,02800,ANDELAIN,Andelain,75,49.6411808161,3.3695440898,2,Aisne,Hauts-de-France,2,A1,1
02017,02800,ANGUILCOURT LE SART,Anguilcourt-le-Sart,66,49.6940879195,3.42823182437,2,Aisne,Hauts-de-France,2,A1,1
02018,02320,ANIZY LE CHATEAU,Anizy-le-Château,75,49.5045058305,3.43129584952,2,Aisne,Hauts-de-France,2,A1,1
02019,02480,ANNOIS,Annois,73,49.7210674108,3.17611501401,2,Aisne,Hauts-de-France,2,A1,1
02020,02500,ANY MARTIN RIEUX,Any-Martin-Rieux,225,49.8823706752,4.22351346907,2,Aisne,Hauts-de-France,2,C1,2
02021,02360,ARCHON,Archon,193,49.744126618,4.11908765808,2,Aisne,Hauts-de-France,2,A1,1
02022,02130,ARCY STE RESTITUE,Arcy-Sainte-Restitue,141,49.2548799371,3.47829076337,2,Aisne,Hauts-de-France,2,A1,1
02023,02210,ARMENTIERES SUR OURCQ,Armentières-sur-Ourcq,115,49.1734232511,3.38789647903,2,Aisne,Hauts-de-France,2,A1,1
02024,02860,ARRANCY,Arrancy,167,49.4989016398,3.7647230005,2,Aisne,Hauts-de-France,2,A1,1
02025,02480,ARTEMPS,Artemps,80,49.7617999337,3.19725095546,2,Aisne,Hauts-de-France,2,A1,1
02027,02270,ASSIS SUR SERRE,Assis-sur-Serre,70,49.6803739117,3.55491692691,2,Aisne,Hauts-de-France,2,A1,1
02028,02840,ATHIES SOUS LAON,Athies-sous-Laon,75,49.5757750686,3.69006632109,2,Aisne,Hauts-de-France,2,A1,1
02029,02490,ATTILLY,Attilly,100,49.8554489068,3.15363305662,2,Aisne,Hauts-de-France,2,A1,1
02030,02420,AUBENCHEUL AUX BOIS,Aubencheul-aux-Bois,125,50.0239903854,3.26103215604,2,Aisne,Hauts-de-France,2,A1,2
02031,02500,AUBENTON,Aubenton,213,49.8252306759,4.19066939985,2,Aisne,Hauts-de-France,2,C1,2
02032,02590,AUBIGNY AUX KAISNES,Aubigny-aux-Kaisnes,86,49.7721524634,3.1192565988,2,Aisne,Hauts-de-France,2,A1,1
02033,02820,AUBIGNY EN LAONNOIS,Aubigny-en-Laonnois,150,49.4968821185,3.79282850765,2,Aisne,Hauts-de-France,2,A1,1
02034,02300,AUDIGNICOURT,Audignicourt,126,49.4777157214,3.12718502825,2,Aisne,Hauts-de-France,2,A1,1
02035,02120,AUDIGNY,Audigny,142,49.8660645425,3.6312599901,2,Aisne,Hauts-de-France,2,A1,1
02036,02220,AUGY,Augy,85,49.340063724,3.5110198819,2,Aisne,Hauts-de-France,2,A1,1
02037,02000,AULNOIS SOUS LAON,Aulnois-sous-Laon,77,49.6198117499,3.60981962105,2,Aisne,Hauts-de-France,2,A1,1
02038,02360,LES AUTELS,Les Autels,218,49.7608855336,4.22422505762,2,Aisne,Hauts-de-France,2,A1,1
02039,02250,AUTREMENCOURT,Autremencourt,105,49.7051244442,3.79419867292,2,Aisne,Hauts-de-France,2,A1,1
02040,02580,AUTREPPES,Autreppes,160,49.8969849321,3.85601033505,2,Aisne,Hauts-de-France,2,A1,2
02041,02300,AUTREVILLE,Autreville,59,49.5860875305,3.23602708427,2,Aisne,Hauts-de-France,2,A1,1
02042,02400,AZY SUR MARNE,Azy-sur-Marne,93,49.0039701095,3.35913214045,2,Aisne,Hauts-de-France,2,A1,1
02043,02290,BAGNEUX,Bagneux,113,49.4601139731,3.27945330014,2,Aisne,Hauts-de-France,2,A1,1
02044,02140,BANCIGNY,Bancigny,190,49.7978711595,4.03669866073,2,Aisne,Hauts-de-France,2,A1,1
02046,02000,BARENTON BUGNY,Barenton-Bugny,75,49.6218589779,3.66103056579,2,Aisne,Hauts-de-France,2,A1,1
02047,02000,BARENTON CEL,Barenton-Cel,79,49.6477517259,3.64469997459,2,Aisne,Hauts-de-France,2,A1,1
02048,02270,BARENTON SUR SERRE,Barenton-sur-Serre,76,49.66833977,3.68940610952,2,Aisne,Hauts-de-France,2,A1,1
02049,02700,BARISIS AUX BOIS,Barisis-aux-Bois,110,49.577979369,3.32804487461,2,Aisne,Hauts-de-France,2,A1,1
02050,02170,BARZY EN THIERACHE,Barzy-en-Thiérache,182,50.0395375873,3.74901595409,2,Aisne,Hauts-de-France,2,A1,2
02051,02850,BARZY SUR MARNE,Barzy-sur-Marne,162,49.0906196202,3.56214117254,2,Aisne,Hauts-de-France,2,A1,1
02052,02380,BASSOLES AULERS,Bassoles-Aulers,153,49.5332813699,3.38492604839,2,Aisne,Hauts-de-France,2,A1,1
02053,02330,VALLEES EN CHAMPAGNE,Vallées en Champagne,168,48.9896915811,3.60486686026,2,Aisne,Hauts-de-France,2,A1,1
02054,02220,BAZOCHES SUR VESLES,Bazoches-sur-Vesles,98,49.3070586788,3.61583126589,2,Aisne,Hauts-de-France,2,A1,1
02055,02500,BEAUME,Beaumé,206,49.8211281836,4.15200066545,2,Aisne,Hauts-de-France,2,C1,2
02056,02300,BEAUMONT EN BEINE,Beaumont-en-Beine,97,49.6874633882,3.13133369335,2,Aisne,Hauts-de-France,2,A1,1
02057,02110,BEAUREVOIR,Beaurevoir,127,49.9965608612,3.32970842537,2,Aisne,Hauts-de-France,2,A1,2
02058,02160,BEAURIEUX,Beaurieux,89,49.402806797,3.75287161991,2,Aisne,Hauts-de-France,2,A1,1
02059,02800,BEAUTOR,Beautor,50,49.648319958,3.33811188104,2,Aisne,Hauts-de-France,2,A1,1
02060,02590,BEAUVOIS EN VERMANDOIS,Beauvois-en-Vermandois,90,49.8339921767,3.10282045546,2,Aisne,Hauts-de-France,2,A1,1
02061,02110,BECQUIGNY,Becquigny,152,50.0158703814,3.45898644538,2,Aisne,Hauts-de-France,2,A1,2
02062,02400,BELLEAU,Belleau,134,49.0829128265,3.30049173293,2,Aisne,Hauts-de-France,2,A1,1
02063,02420,BELLENGLISE,Bellenglise,99,49.9261057081,3.2441994692,2,Aisne,Hauts-de-France,2,A1,2
02064,02200,BELLEU,Belleu,105,49.3567574344,3.34051688283,2,Aisne,Hauts-de-France,2,A1,1
02065,02420,BELLICOURT,Bellicourt,125,49.9592991729,3.23020850852,2,Aisne,Hauts-de-France,2,A1,2
02066,02440,BENAY,Benay,94,49.755094123,3.30909898139,2,Aisne,Hauts-de-France,2,A1,1
02067,02450,BERGUES SUR SAMBRE,Bergues-sur-Sambre,166,50.0294686238,3.711371001,2,Aisne,Hauts-de-France,2,A1,2
02068,02250,BERLANCOURT,Berlancourt,134,49.7808533631,3.75710714699,2,Aisne,Hauts-de-France,2,A1,1
02069,02340,BERLISE,Berlise,155,49.6622290606,4.11314086897,2,Aisne,Hauts-de-France,2,A1,1
02070,02120,BERNOT,Bernot,103,49.8793651304,3.48665456392,2,Aisne,Hauts-de-France,2,A1,1
02071,02290,BERNY RIVIERE,Berny-Rivière,82,49.4113288887,3.14975272702,2,Aisne,Hauts-de-France,2,A1,1
02072,02820,BERRIEUX,Berrieux,95,49.4823563962,3.8521031839,2,Aisne,Hauts-de-France,2,A1,1
02073,02190,BERRY AU BAC,Berry-au-Bac,58,49.4084985083,3.8985497785,2,Aisne,Hauts-de-France,2,A1,1
02074,02800,BERTAUCOURT EPOURDON,Bertaucourt-Epourdon,92,49.6276056573,3.39748988886,2,Aisne,Hauts-de-France,2,A1,1
02075,02240,BERTHENICOURT,Berthenicourt,84,49.7788058177,3.37247241058,2,Aisne,Hauts-de-France,2,A1,1
02076,02190,BERTRICOURT,Bertricourt,64,49.3975285682,4.01146178698,2,Aisne,Hauts-de-France,2,A1,1
02077,02200,BERZY LE SEC,Berzy-le-Sec,123,49.3172125296,3.29666086699,2,Aisne,Hauts-de-France,2,A1,1
02078,02300,BESME,Besmé,60,49.5341682819,3.16474171361,2,Aisne,Hauts-de-France,2,A1,1
02079,02500,BESMONT,Besmont,200,49.823361306,4.11768907822,2,Aisne,Hauts-de-France,2,C1,2
02080,02870,BESNY ET LOIZY,Besny-et-Loizy,82,49.5928792816,3.57657238799,2,Aisne,Hauts-de-France,2,A1,1
02081,02300,BETHANCOURT EN VAUX,Béthancourt-en-Vaux,105,49.6290547772,3.14064657935,2,Aisne,Hauts-de-France,2,A1,1
02082,02210,BEUGNEUX,Beugneux,143,49.2275759309,3.41647403702,2,Aisne,Hauts-de-France,2,A1,1
02083,02130,BEUVARDES,Beuvardes,201,49.1308547007,3.49165019107,2,Aisne,Hauts-de-France,2,A1,1
02084,02310,BEZU LE GUERY,Bézu-le-Guéry,174,49.0102591835,3.22764610411,2,Aisne,Hauts-de-France,2,A1,1
02085,02400,BEZU ST GERMAIN,Bézu-Saint-Germain,183,49.1046732888,3.40812513224,2,Aisne,Hauts-de-France,2,A1,1
02086,02300,BICHANCOURT,Bichancourt,51,49.578776546,3.21263017443,2,Aisne,Hauts-de-France,2,A1,1
02087,02290,BIEUXY,Bieuxy,126,49.4476050585,3.26985890807,2,Aisne,Hauts-de-France,2,A1,1
02088,02860,BIEVRES,Bièvres,110,49.4921822965,3.7137356904,2,Aisne,Hauts-de-France,2,A1,1
02089,02200,BILLY SUR AISNE,Billy-sur-Aisne,107,49.3556556532,3.37609947556,2,Aisne,Hauts-de-France,2,A1,1
02090,02210,BILLY SUR OURCQ,Billy-sur-Ourcq,158,49.2215032882,3.29903267663,2,Aisne,Hauts-de-France,2,A1,1
02091,02160,BLANZY LES FISMES,Blanzy-lès-Fismes,152,49.3372673738,3.671868408,2,Aisne,Hauts-de-France,2,A1,1
02093,02300,BLERANCOURT,Blérancourt,100,49.5076223945,3.15179502187,2,Aisne,Hauts-de-France,2,A1,1
02094,02400,BLESMES,Blesmes,181,49.0264919363,3.46405474705,2,Aisne,Hauts-de-France,2,A1,1
02095,02110,BOHAIN EN VERMANDOIS,Bohain-en-Vermandois,141,49.989032874,3.46522354976,2,Aisne,Hauts-de-France,2,A1,2
02096,02270,BOIS LES PARGNY,Bois-lès-Pargny,123,49.7369350689,3.65414834535,2,Aisne,Hauts-de-France,2,A1,1
02097,02350,BONCOURT,Boncourt,114,49.6264861998,3.956447719,2,Aisne,Hauts-de-France,2,A1,1
02098,02400,BONNEIL,Bonneil,139,49.0082419817,3.3459478468,2,Aisne,Hauts-de-France,2,A1,1
02099,02400,BONNESVALYN,Bonnesvalyn,159,49.1264049496,3.32541661771,2,Aisne,Hauts-de-France,2,A1,1
02100,02420,BONY,Bony,122,49.9908643724,3.22116002448,2,Aisne,Hauts-de-France,2,A1,2
02101,02250,BOSMONT SUR SERRE,Bosmont-sur-Serre,130,49.7390653213,3.86733568391,2,Aisne,Hauts-de-France,2,A1,1
02102,02860,BOUCONVILLE VAUCLAIR,Bouconville-Vauclair,129,49.4606212957,3.75658607824,2,Aisne,Hauts-de-France,2,A1,1
02103,02450,BOUE,Boué,162,50.0114554001,3.71432024852,2,Aisne,Hauts-de-France,2,A1,2
02104,02160,BOUFFIGNEREUX,Bouffignereux,79,49.3788374998,3.84626014622,2,Aisne,Hauts-de-France,2,A1,1
02105,02400,BOURESCHES,Bouresches,164,49.0671787396,3.31728226934,2,Aisne,Hauts-de-France,2,A1,1
02106,02160,BOURG ET COMIN,Bourg-et-Comin,81,49.4022354002,3.65944342757,2,Aisne,Hauts-de-France,2,A1,1
02107,02300,BOURGUIGNON SOUS COUCY,Bourguignon-sous-Coucy,60,49.5427641575,3.15422957657,2,Aisne,Hauts-de-France,2,A1,1
02108,02000,BOURGUIGNON SOUS MONTBAVIN,Bourguignon-sous-Montbavin,124,49.5288056883,3.53777236106,2,Aisne,Hauts-de-France,2,A1,1
02109,02140,LA BOUTEILLE,La Bouteille,181,49.8778828965,3.96243530235,2,Aisne,Hauts-de-France,2,A1,1
02110,02220,BRAINE,Braine,70,49.3484719318,3.53596629744,2,Aisne,Hauts-de-France,2,A1,1
02111,02320,BRANCOURT EN LAONNOIS,Brancourt-en-Laonnois,105,49.5176286609,3.41282321335,2,Aisne,Hauts-de-France,2,A1,1
02112,02110,BRANCOURT LE GRAND,Brancourt-le-Grand,138,49.98081057,3.39391192109,2,Aisne,Hauts-de-France,2,A1,2
02114,02400,BRASLES,Brasles,131,49.0567927241,3.42453409652,2,Aisne,Hauts-de-France,2,A1,1
02115,02000,BRAYE EN LAONNOIS,Braye-en-Laonnois,130,49.4375773374,3.60977976284,2,Aisne,Hauts-de-France,2,A1,1
02116,02140,BRAYE EN THIERACHE,Braye-en-Thiérache,165,49.7675470994,3.96265841899,2,Aisne,Hauts-de-France,2,A1,1
02117,02480,BRAY ST CHRISTOPHE,Bray-Saint-Christophe,80,49.7746700975,3.14070965091,2,Aisne,Hauts-de-France,2,A1,1
02118,02880,BRAYE,Braye,84,49.4221361409,3.37829006511,2,Aisne,Hauts-de-France,2,A1,1
02119,02210,BRECY,Brécy,147,49.1398626041,3.42373097034,2,Aisne,Hauts-de-France,2,A1,1
02120,02220,BRENELLE,Brenelle,133,49.3680052078,3.5442035574,2,Aisne,Hauts-de-France,2,A1,1
02121,02210,BRENY,Breny,104,49.1842783438,3.34972495405,2,Aisne,Hauts-de-France,2,A1,1
02122,02870,BRIE,Brie,129,49.5973962294,3.4733634659,2,Aisne,Hauts-de-France,2,A1,1
02123,02240,BRISSAY CHOIGNY,Brissay-Choigny,76,49.7228299725,3.39639768252,2,Aisne,Hauts-de-France,2,A1,1
02124,02240,BRISSY HAMEGICOURT,Brissy-Hamégicourt,83,49.7432786375,3.39968837909,2,Aisne,Hauts-de-France,2,A1,1
02125,02810,BRUMETZ,Brumetz,119,49.1103074474,3.15291445147,2,Aisne,Hauts-de-France,2,A1,1
02126,02360,BRUNEHAMEL,Brunehamel,241,49.7718100626,4.18649398572,2,Aisne,Hauts-de-France,2,A1,1
02127,02130,BRUYERES SUR FERE,Bruyères-sur-Fère,121,49.1996571467,3.44535846468,2,Aisne,Hauts-de-France,2,A1,1
02128,02860,BRUYERES ET MONTBERAULT,Bruyères-et-Montbérault,111,49.5239615523,3.66954693798,2,Aisne,Hauts-de-France,2,A1,1
02129,02220,BRUYS,Bruys,128,49.2621681637,3.56863439754,2,Aisne,Hauts-de-France,2,A1,1
02130,02500,BUCILLY,Bucilly,192,49.8658103548,4.09323369949,2,Aisne,Hauts-de-France,2,C1,2
02131,02880,BUCY LE LONG,Bucy-le-Long,73,49.3884447185,3.39828602712,2,Aisne,Hauts-de-France,2,A1,1
02132,02870,BUCY LES CERNY,Bucy-lès-Cerny,123,49.5790852566,3.496908306,2,Aisne,Hauts-de-France,2,A1,1
02133,02350,BUCY LES PIERREPONT,Bucy-lès-Pierrepont,105,49.6467998089,3.90358311553,2,Aisne,Hauts-de-France,2,A1,1
02134,02500,BUIRE,Buire,188,49.9070296259,4.05674542304,2,Aisne,Hauts-de-France,2,C1,2
02135,02620,BUIRONFOSSE,Buironfosse,206,49.9577111138,3.838016082,2,Aisne,Hauts-de-France,2,C1,2
02136,02140,BURELLES,Burelles,155,49.7687046874,3.91196369709,2,Aisne,Hauts-de-France,2,A1,1
02137,02810,BUSSIARES,Bussiares,141,49.0765910572,3.25026191909,2,Aisne,Hauts-de-France,2,A1,1
02138,02200,BUZANCY,Buzancy,126,49.3099528163,3.3478744079,2,Aisne,Hauts-de-France,2,A1,1
02139,02300,CAILLOUEL CREPIGNY,Caillouël-Crépigny,96,49.6176055636,3.12169527347,2,Aisne,Hauts-de-France,2,A1,1
02140,02300,CAMELIN,Camelin,92,49.5205248253,3.12854853594,2,Aisne,Hauts-de-France,2,A1,1
02141,02260,LA CAPELLE,La Capelle,218,49.9732109539,3.91398483546,2,Aisne,Hauts-de-France,2,A1,1
02142,02680,CASTRES,Castres,88,49.8013894137,3.25325245088,2,Aisne,Hauts-de-France,2,A1,1
02143,02420,LE CATELET,Le Catelet,93,50.0009779444,3.2423098464,2,Aisne,Hauts-de-France,2,A1,2
02144,02490,CAULAINCOURT,Caulaincourt,85,49.864658382,3.11126489473,2,Aisne,Hauts-de-France,2,A1,1
02145,02300,CAUMONT,Caumont,90,49.6372659106,3.17347612819,2,Aisne,Hauts-de-France,2,A1,1
02146,02330,CELLES LES CONDE,Celles-lès-Condé,122,49.0148161041,3.57007423847,2,Aisne,Hauts-de-France,2,A1,1
02148,02370,CELLES SUR AISNE,Celles-sur-Aisne,115,49.4159264546,3.47446927431,2,Aisne,Hauts-de-France,2,A1,1
02149,02240,CERIZY,Cerizy,104,49.7670333979,3.33255021354,2,Aisne,Hauts-de-France,2,A1,1
02150,02860,CERNY EN LAONNOIS,Cerny-en-Laonnois,137,49.4500150087,3.67982439455,2,Aisne,Hauts-de-France,2,A1,1
02151,02870,CERNY LES BUCY,Cerny-lès-Bucy,86,49.5778658953,3.54646763896,2,Aisne,Hauts-de-France,2,A1,1
02152,02220,CERSEUIL,Cerseuil,125,49.324784775,3.51746919082,2,Aisne,Hauts-de-France,2,A1,1
02153,02320,CESSIERES,Cessières,109,49.5595788079,3.50190405701,2,Aisne,Hauts-de-France,2,A1,1
02154,02200,CHACRISE,Chacrise,113,49.3002009035,3.39759102537,2,Aisne,Hauts-de-France,2,A1,1
02155,02000,CHAILLEVOIS,Chaillevois,94,49.5081654549,3.52234605948,2,Aisne,Hauts-de-France,2,A1,1
02156,02270,CHALANDRY,Chalandry,82,49.6702675165,3.64445509533,2,Aisne,Hauts-de-France,2,A1,1
02157,02000,CHAMBRY,Chambry,76,49.5986366056,3.67200832611,2,Aisne,Hauts-de-France,2,A1,1
02158,02860,CHAMOUILLE,Chamouille,101,49.4720646954,3.67062673062,2,Aisne,Hauts-de-France,2,A1,1
02159,02670,CHAMPS,Champs,54,49.5434967943,3.2618311238,2,Aisne,Hauts-de-France,2,A1,1
02160,02340,CHAOURSE,Chaourse,141,49.7007898116,3.98562292281,2,Aisne,Hauts-de-France,2,A1,1
02162,02570,LA CHAPELLE SUR CHEZY,La Chapelle-sur-Chézy,205,48.9492049177,3.37662807022,2,Aisne,Hauts-de-France,2,A1,1
02163,02310,CHARLY SUR MARNE,Charly-sur-Marne,141,48.9898678258,3.29365157876,2,Aisne,Hauts-de-France,2,A1,1
02164,02850,LE CHARMEL,Le Charmel,197,49.1121866037,3.54125960951,2,Aisne,Hauts-de-France,2,A1,1
02165,02800,CHARMES,Charmes,69,49.6508532429,3.38525104222,2,Aisne,Hauts-de-France,2,A1,1
02166,02400,CHARTEVES,Chartèves,157,49.0898127369,3.50871838479,2,Aisne,Hauts-de-France,2,A1,1
02167,02370,CHASSEMY,Chassemy,63,49.3783410842,3.50271467967,2,Aisne,Hauts-de-France,2,A1,1
02168,02400,CHATEAU THIERRY,Château-Thierry,154,49.0564070801,3.38160004843,2,Aisne,Hauts-de-France,2,A1,1
02169,02270,CHATILLON LES SONS,Châtillon-lès-Sons,113,49.7618503091,3.70312508858,2,Aisne,Hauts-de-France,2,A1,1
02170,02240,CHATILLON SUR OISE,Châtillon-sur-Oise,85,49.7938161671,3.41630401708,2,Aisne,Hauts-de-France,2,A1,1
02171,02160,CHAUDARDES,Chaudardes,62,49.3962562981,3.78942153696,2,Aisne,Hauts-de-France,2,A1,1
02172,02200,CHAUDUN,Chaudun,147,49.3150223009,3.25276338247,2,Aisne,Hauts-de-France,2,A1,1
02173,02300,CHAUNY,Chauny,57,49.619880673,3.21875355041,2,Aisne,Hauts-de-France,2,A1,1
02174,02000,CHAVIGNON,Chavignon,108,49.4794437147,3.51936895626,2,Aisne,Hauts-de-France,2,A1,1
02175,02880,CHAVIGNY,Chavigny,105,49.4232730431,3.30567490669,2,Aisne,Hauts-de-France,2,A1,1
02176,02370,CHAVONNE,Chavonne,89,49.4073162185,3.56243209622,2,Aisne,Hauts-de-France,2,A1,1
02177,02860,CHERET,Chérêt,151,49.5141661683,3.68718851388,2,Aisne,Hauts-de-France,2,A1,1
02178,02860,CHERMIZY AILLES,Chermizy-Ailles,121,49.4629888139,3.71995479046,2,Aisne,Hauts-de-France,2,A1,1
02179,02220,CHERY CHARTREUVE,Chéry-Chartreuve,163,49.2556867214,3.60484629397,2,Aisne,Hauts-de-France,2,A1,1
02180,02000,CHERY LES POUILLY,Chéry-lès-Pouilly,77,49.6488389918,3.59416271271,2,Aisne,Hauts-de-France,2,A1,1
02181,02360,CHERY LES ROZOY,Chéry-lès-Rozoy,171,49.7222192886,4.1011989282,2,Aisne,Hauts-de-France,2,A1,1
02182,02250,CHEVENNES,Chevennes,141,49.818366417,3.7371313317,2,Aisne,Hauts-de-France,2,A1,1
02183,02000,CHEVREGNY,Chevregny,113,49.4661009452,3.59365333616,2,Aisne,Hauts-de-France,2,A1,1
02184,02270,CHEVRESIS MONCEAU,Chevresis-Monceau,92,49.7616780422,3.5837583969,2,Aisne,Hauts-de-France,2,A1,1
02185,02810,CHEZY EN ORXOIS,Chézy-en-Orxois,131,49.1268031885,3.16759094422,2,Aisne,Hauts-de-France,2,A1,1
02186,02570,CHEZY SUR MARNE,Chézy-sur-Marne,137,48.983996655,3.38226485102,2,Aisne,Hauts-de-France,2,A1,1
02187,02400,CHIERRY,Chierry,114,49.035155356,3.43302324278,2,Aisne,Hauts-de-France,2,A1,1
02188,02120,CHIGNY,Chigny,173,49.9298846139,3.77489645427,2,Aisne,Hauts-de-France,2,A1,1
02189,02350,CHIVRES EN LAONNOIS,Chivres-en-Laonnois,82,49.6268606782,3.85603255601,2,Aisne,Hauts-de-France,2,A1,1
02190,02880,CHIVRES VAL,Chivres-Val,110,49.4029298198,3.43836038727,2,Aisne,Hauts-de-France,2,A1,1
02191,02000,CHIVY LES ETOUVELLES,Chivy-lès-Étouvelles,64,49.5326303582,3.58562168803,2,Aisne,Hauts-de-France,2,A1,1
02192,02210,CHOUY,Chouy,141,49.2167334121,3.24708004454,2,Aisne,Hauts-de-France,2,A1,1
02193,02130,CIERGES,Cierges,187,49.1648316775,3.60411788847,2,Aisne,Hauts-de-France,2,A1,1
02194,02250,CILLY,Cilly,132,49.7490011958,3.84000022806,2,Aisne,Hauts-de-France,2,A1,1
02195,02220,CIRY SALSOGNE,Ciry-Salsogne,83,49.3674868367,3.46778299062,2,Aisne,Hauts-de-France,2,A1,1
02196,02000,CLACY ET THIERRET,Clacy-et-Thierret,70,49.5524137158,3.56557185412,2,Aisne,Hauts-de-France,2,A1,1
02197,02260,CLAIRFONTAINE,Clairfontaine,220,49.9739945177,3.98660655282,2,Aisne,Hauts-de-France,2,A1,1
02198,02880,CLAMECY,Clamecy,125,49.4281077825,3.36378754787,2,Aisne,Hauts-de-France,2,A1,1
02199,02440,CLASTRES,Clastres,79,49.7488769741,3.2302033407,2,Aisne,Hauts-de-France,2,A1,1
02200,02340,CLERMONT LES FERMES,Clermont-les-Fermes,130,49.6601654327,3.94320327145,2,Aisne,Hauts-de-France,2,A1,1
02201,02600,COEUVRES ET VALSERY,Cœuvres-et-Valsery,118,49.3295432232,3.15290453511,2,Aisne,Hauts-de-France,2,A1,1
02203,02210,COINCY,Coincy,145,49.1632280955,3.43633795455,2,Aisne,Hauts-de-France,2,A1,1
02204,02360,COINGT,Coingt,211,49.7923246397,4.09591303887,2,Aisne,Hauts-de-France,2,A1,1
02205,02860,COLLIGIS CRANDELAIN,Colligis-Crandelain,116,49.4666159338,3.63042181928,2,Aisne,Hauts-de-France,2,A1,1
02206,02120,COLONFAY,Colonfay,153,49.8584586783,3.71138683561,2,Aisne,Hauts-de-France,2,A1,1
02207,02300,COMMENCHON,Commenchon,108,49.6416913377,3.15095437349,2,Aisne,Hauts-de-France,2,A1,1
02208,02160,CONCEVREUX,Concevreux,82,49.3764478648,3.78830446161,2,Aisne,Hauts-de-France,2,A1,1
02209,02330,CONDE EN BRIE,Condé-en-Brie,132,49.0016101753,3.56116999962,2,Aisne,Hauts-de-France,2,A1,1
02210,02370,CONDE SUR AISNE,Condé-sur-Aisne,102,49.4007552828,3.46571591087,2,Aisne,Hauts-de-France,2,A1,1
02211,02190,CONDE SUR SUIPPE,Condé-sur-Suippe,57,49.4138370327,3.94498449027,2,Aisne,Hauts-de-France,2,A1,1
02212,02700,CONDREN,Condren,51,49.6370236167,3.27726632135,2,Aisne,Hauts-de-France,2,A1,1
02213,02330,CONNIGIS,Connigis,145,49.0359363932,3.53287282671,2,Aisne,Hauts-de-France,2,A1,1
02214,02680,CONTESCOURT,Contescourt,88,49.7916934603,3.23428350737,2,Aisne,Hauts-de-France,2,A1,1
02215,02820,CORBENY,Corbeny,86,49.4620558975,3.82654082441,2,Aisne,Hauts-de-France,2,A1,1
02216,02600,CORCY,Corcy,118,49.2549892095,3.19724367023,2,Aisne,Hauts-de-France,2,A1,1
02217,02380,COUCY LE CHATEAU AUFFRIQUE,Coucy-le-Château-Auffrique,67,49.5159709578,3.31548892957,2,Aisne,Hauts-de-France,2,A1,1
02218,02840,COUCY LES EPPES,Coucy-lès-Eppes,88,49.5566159059,3.77716711865,2,Aisne,Hauts-de-France,2,A1,1
02219,02380,COUCY LA VILLE,Coucy-la-Ville,131,49.5405792355,3.34372156034,2,Aisne,Hauts-de-France,2,A1,1
02220,02130,COULONGES COHAN,Coulonges-Cohan,182,49.1980463524,3.62776592985,2,Aisne,Hauts-de-France,2,A1,1
02221,02310,COUPRU,Coupru,183,49.0313536349,3.2743801467,2,Aisne,Hauts-de-France,2,A1,1
02222,02800,COURBES,Courbes,67,49.6815888779,3.46004834981,2,Aisne,Hauts-de-France,2,A1,1
02223,02330,COURBOIN,Courboin,200,48.9960917184,3.50690687861,2,Aisne,Hauts-de-France,2,A1,1
02224,02220,COURCELLES SUR VESLE,Courcelles-sur-Vesle,127,49.348025885,3.57684035869,2,Aisne,Hauts-de-France,2,A1,1
02225,02810,COURCHAMPS,Courchamps,156,49.1164230809,3.26303714363,2,Aisne,Hauts-de-France,2,A1,1
02226,02200,COURMELLES,Courmelles,103,49.3434328339,3.30199112892,2,Aisne,Hauts-de-France,2,A1,1
02227,02130,COURMONT,Courmont,185,49.1377444173,3.57546880498,2,Aisne,Hauts-de-France,2,A1,1
02228,02850,COURTEMONT VARENNES,Courtemont-Varennes,109,49.0715288855,3.54168079771,2,Aisne,Hauts-de-France,2,A1,1
02229,02820,COURTRIZY ET FUSSIGNY,Courtrizy-et-Fussigny,153,49.5140957547,3.79503800634,2,Aisne,Hauts-de-France,2,A1,1
02230,02220,COUVRELLES,Couvrelles,128,49.3339841009,3.48486954064,2,Aisne,Hauts-de-France,2,A1,1
02231,02270,COUVRON ET AUMENCOURT,Couvron-et-Aumencourt,71,49.6458776473,3.52446684584,2,Aisne,Hauts-de-France,2,A1,1
02232,02600,COYOLLES,Coyolles,126,49.2133089693,3.01306173751,2,Aisne,Hauts-de-France,2,A1,1
02233,02130,CRAMAILLE,Cramaille,149,49.2285541737,3.45227303073,2,Aisne,Hauts-de-France,2,A1,1
02234,02160,CRAONNE,Craonne,103,49.4476368348,3.79203280761,2,Aisne,Hauts-de-France,2,A1,1
02235,02160,CRAONNELLE,Craonnelle,94,49.4254999308,3.77686483236,2,Aisne,Hauts-de-France,2,A1,1
02236,02380,CRECY AU MONT,Crécy-au-Mont,116,49.4839031807,3.31195074309,2,Aisne,Hauts-de-France,2,A1,1
02237,02270,CRECY SUR SERRE,Crécy-sur-Serre,86,49.698624191,3.62256564798,2,Aisne,Hauts-de-France,2,A1,1
02238,02870,CREPY,Crépy,101,49.6082534854,3.5125070585,2,Aisne,Hauts-de-France,2,A1,1
02239,02650,CREZANCY,Crézancy,146,49.0428713757,3.51138201699,2,Aisne,Hauts-de-France,2,A1,1
02240,02110,CROIX FONSOMME,Croix-Fonsomme,114,49.9306761102,3.39430326005,2,Aisne,Hauts-de-France,2,A1,2
02241,02210,LA CROIX SUR OURCQ,La Croix-sur-Ourcq,151,49.1598010602,3.35048905306,2,Aisne,Hauts-de-France,2,A1,1
02242,02310,CROUTTES SUR MARNE,Crouttes-sur-Marne,133,48.9791200153,3.24757642131,2,Aisne,Hauts-de-France,2,A1,1
02243,02880,CROUY,Crouy,102,49.4078535405,3.36640020468,2,Aisne,Hauts-de-France,2,A1,1
02244,02120,CRUPILLY,Crupilly,171,49.9313828796,3.75249198254,2,Aisne,Hauts-de-France,2,A1,1
02245,02880,CUFFIES,Cuffies,111,49.4081126802,3.32236958826,2,Aisne,Hauts-de-France,2,A1,1
02246,02480,CUGNY,Cugny,81,49.7031009123,3.15424498862,2,Aisne,Hauts-de-France,2,A1,1
02248,02350,CUIRIEUX,Cuirieux,92,49.6834404265,3.81994750866,2,Aisne,Hauts-de-France,2,A1,1
02249,02220,CUIRY HOUSSE,Cuiry-Housse,132,49.2904033438,3.48843248507,2,Aisne,Hauts-de-France,2,A1,1
02250,02160,CUIRY LES CHAUDARDES,Cuiry-lès-Chaudardes,64,49.3897631676,3.76227512623,2,Aisne,Hauts-de-France,2,A1,1
02251,02360,CUIRY LES IVIERS,Cuiry-lès-Iviers,195,49.7661751176,4.10397751712,2,Aisne,Hauts-de-France,2,A1,1
02252,02160,CUISSY ET GENY,Cuissy-et-Geny,110,49.4034575347,3.70612307803,2,Aisne,Hauts-de-France,2,A1,1
02253,02200,CUISY EN ALMONT,Cuisy-en-Almont,110,49.4207417064,3.24887510168,2,Aisne,Hauts-de-France,2,A1,1
02254,02600,CUTRY,Cutry,132,49.3442753875,3.19127169549,2,Aisne,Hauts-de-France,2,A1,1
02255,02220,CYS LA COMMUNE,Cys-la-Commune,105,49.3837163848,3.57235420125,2,Aisne,Hauts-de-France,2,A1,1
02256,02140,DAGNY LAMBERCY,Dagny-Lambercy,182,49.7690562311,4.04218248631,2,Aisne,Hauts-de-France,2,A1,1
02257,02680,DALLON,Dallon,94,49.8240617542,3.23031219742,2,Aisne,Hauts-de-France,2,A1,1
02258,02470,DAMMARD,Dammard,135,49.1470522556,3.17719709632,2,Aisne,Hauts-de-France,2,A1,1
02259,02600,DAMPLEUX,Dampleux,145,49.2414407733,3.14413128827,2,Aisne,Hauts-de-France,2,A1,1
02260,02800,DANIZY,Danizy,62,49.6665738585,3.40089557013,2,Aisne,Hauts-de-France,2,A1,1
02261,02270,DERCY,Dercy,88,49.709705981,3.68499803784,2,Aisne,Hauts-de-France,2,A1,1
02262,02700,DEUILLET,Deuillet,62,49.6285991184,3.36051598302,2,Aisne,Hauts-de-France,2,A1,1
02263,02220,DHUIZEL,Dhuizel,151,49.3602201297,3.61487590771,2,Aisne,Hauts-de-France,2,A1,1
02264,02340,DIZY LE GROS,Dizy-le-Gros,124,49.6355575735,4.01312880234,2,Aisne,Hauts-de-France,2,A1,1
02265,02360,DOHIS,Dohis,217,49.7667554096,4.14178746545,2,Aisne,Hauts-de-France,2,A1,1
02266,02360,DOLIGNON,Dolignon,185,49.7338298517,4.08637882793,2,Aisne,Hauts-de-France,2,A1,1
02267,02600,DOMMIERS,Dommiers,140,49.3290731499,3.21634686939,2,Aisne,Hauts-de-France,2,A1,1
02268,02310,DOMPTIN,Domptin,162,49.0156995656,3.27296497779,2,Aisne,Hauts-de-France,2,A1,1
02269,02450,DORENGT,Dorengt,159,49.9652064178,3.7033753973,2,Aisne,Hauts-de-France,2,A1,2
02270,02590,DOUCHY,Douchy,90,49.7940905147,3.13035849025,2,Aisne,Hauts-de-France,2,A1,1
02271,02130,DRAVEGNY,Dravegny,156,49.2391906053,3.64128453803,2,Aisne,Hauts-de-France,2,A1,1
02272,02210,DROIZY,Droizy,135,49.2773564352,3.38965007811,2,Aisne,Hauts-de-France,2,A1,1
02273,02480,DURY,Dury,74,49.751235296,3.13377121735,2,Aisne,Hauts-de-France,2,A1,1
02274,02350,EBOULEAU,Ébouleau,115,49.6781110152,3.88259465732,2,Aisne,Hauts-de-France,2,A1,1
02275,02500,EFFRY,Effry,169,49.9191180654,3.98790173223,2,Aisne,Hauts-de-France,2,C1,2
02276,02260,ENGLANCOURT,Englancourt,167,49.9258825845,3.80718694445,2,Aisne,Hauts-de-France,2,A1,1
02277,02290,EPAGNY,Épagny,130,49.471791053,3.25384432012,2,Aisne,Hauts-de-France,2,A1,1
02278,02500,EPARCY,Éparcy,178,49.8861370225,4.0702371205,2,Aisne,Hauts-de-France,2,C1,2
02279,02400,EPAUX BEZU,Épaux-Bézu,169,49.1029988371,3.35359350285,2,Aisne,Hauts-de-France,2,A1,1
02280,02400,EPIEDS,Épieds,193,49.1045180167,3.45072347386,2,Aisne,Hauts-de-France,2,A1,1
02281,02540,L EPINE AUX BOIS,L'Épine-aux-Bois,200,48.8992804015,3.44384138078,2,Aisne,Hauts-de-France,2,A1,1
02282,02840,EPPES,Eppes,85,49.5523855068,3.73980858367,2,Aisne,Hauts-de-France,2,A1,1
02283,02250,ERLON,Erlon,96,49.7348278249,3.70534450333,2,Aisne,Hauts-de-France,2,A1,1
02284,02260,ERLOY,Erloy,164,49.9195909244,3.83764920476,2,Aisne,Hauts-de-France,2,A1,1
02286,02170,ESQUEHERIES,Esquéhéries,179,49.9822300914,3.75309920982,2,Aisne,Hauts-de-France,2,A1,2
02287,02690,ESSIGNY LE GRAND,Essigny-le-Grand,98,49.7740780116,3.27214459324,2,Aisne,Hauts-de-France,2,A1,1
02288,02100,ESSIGNY LE PETIT,Essigny-le-Petit,104,49.8961825414,3.36742260207,2,Aisne,Hauts-de-France,2,A1,1
02289,02570,ESSISES,Essises,172,48.9666904843,3.41396491705,2,Aisne,Hauts-de-France,2,A1,1
02290,02400,ESSOMES SUR MARNE,Essômes-sur-Marne,160,49.0341132047,3.34014174183,2,Aisne,Hauts-de-France,2,A1,1
02291,02420,ESTREES,Estrées,126,49.9705842912,3.2801536166,2,Aisne,Hauts-de-France,2,A1,2
02292,02400,ETAMPES SUR MARNE,Étampes-sur-Marne,110,49.0317558536,3.41777664616,2,Aisne,Hauts-de-France,2,A1,1
02293,02110,ETAVES ET BOCQUIAUX,Étaves-et-Bocquiaux,122,49.9310354275,3.45081301205,2,Aisne,Hauts-de-France,2,A1,2
02294,02000,ETOUVELLES,Étouvelles,62,49.5186450995,3.58156180986,2,Aisne,Hauts-de-France,2,A1,1
02295,02580,ETREAUPONT,Étréaupont,178,49.8962633822,3.92348915288,2,Aisne,Hauts-de-France,2,A1,2
02296,02590,ETREILLERS,Étreillers,97,49.8325776228,3.15800068609,2,Aisne,Hauts-de-France,2,A1,1
02297,02400,ETREPILLY,Étrépilly,193,49.0822681369,3.34802063568,2,Aisne,Hauts-de-France,2,A1,1
02298,02510,ETREUX,Étreux,143,49.9996010721,3.65890491685,2,Aisne,Hauts-de-France,2,A1,2
02299,02190,EVERGNICOURT,Évergnicourt,90,49.4564306975,4.03631753944,2,Aisne,Hauts-de-France,2,A1,1
02301,02320,FAUCOUCOURT,Faucoucourt,103,49.5334418244,3.46663902605,2,Aisne,Hauts-de-France,2,A1,1
02302,02600,FAVEROLLES,Faverolles,126,49.227064775,3.17814481548,2,Aisne,Hauts-de-France,2,A1,1
02303,02100,FAYET,Fayet,112,49.8710844824,3.25278845948,2,Aisne,Hauts-de-France,2,A1,1
02304,02800,LA FERE,La Fère,51,49.6662828073,3.36938834693,2,Aisne,Hauts-de-France,2,A1,1
02305,02130,FERE EN TARDENOIS,Fère-en-Tardenois,162,49.1875000917,3.51106425515,2,Aisne,Hauts-de-France,2,A1,1
02306,02270,LA FERTE CHEVRESIS,La Ferté-Chevresis,91,49.7409973498,3.55129770695,2,Aisne,Hauts-de-France,2,A1,1
02307,02460,LA FERTE MILON,La Ferté-Milon,114,49.1759874423,3.14237641756,2,Aisne,Hauts-de-France,2,A1,1
02308,02450,FESMY LE SART,Fesmy-le-Sart,165,50.0482154856,3.69825469199,2,Aisne,Hauts-de-France,2,A1,2
02309,02840,FESTIEUX,Festieux,142,49.5252642949,3.76013631694,2,Aisne,Hauts-de-France,2,A1,1
02310,02110,FIEULAINE,Fieulaine,121,49.9018502295,3.44594045878,2,Aisne,Hauts-de-France,2,A1,2
02311,02000,FILAIN,Filain,127,49.4528807514,3.5574063541,2,Aisne,Hauts-de-France,2,A1,1
02312,02260,LA FLAMENGRIE,La Flamengrie,215,50.0002036206,3.92466690244,2,Aisne,Hauts-de-France,2,A1,1
02313,02120,FLAVIGNY LE GRAND ET BEAURAIN,Flavigny-le-Grand-et-Beaurain,134,49.8865505663,3.67406409367,2,Aisne,Hauts-de-France,2,A1,1
02315,02520,FLAVY LE MARTEL,Flavy-le-Martel,84,49.7047240534,3.19451403575,2,Aisne,Hauts-de-France,2,A1,1
02316,02600,FLEURY,Fleury,140,49.2652863131,3.15947064674,2,Aisne,Hauts-de-France,2,A1,1
02317,02590,FLUQUIERES,Fluquières,92,49.800435087,3.15658582012,2,Aisne,Hauts-de-France,2,A1,1
02318,02670,FOLEMBRAY,Folembray,85,49.5492820594,3.29319165625,2,Aisne,Hauts-de-France,2,A1,1
02319,02110,FONSOMME,Fonsomme,102,49.9012467271,3.39650664791,2,Aisne,Hauts-de-France,2,A1,2
02320,02680,FONTAINE LES CLERCS,Fontaine-lès-Clercs,85,49.8078439274,3.21253412905,2,Aisne,Hauts-de-France,2,A1,1
02321,02140,FONTAINE LES VERVINS,Fontaine-lès-Vervins,189,49.8537390603,3.90543025367,2,Aisne,Hauts-de-France,2,A1,1
02322,02110,FONTAINE NOTRE DAME,Fontaine-Notre-Dame,113,49.8785724713,3.42380596752,2,Aisne,Hauts-de-France,2,A1,2
02323,02110,FONTAINE UTERTE,Fontaine-Uterte,121,49.9252841672,3.36796234214,2,Aisne,Hauts-de-France,2,A1,2
02324,02170,FONTENELLE,Fontenelle,208,50.0309452362,3.84625365761,2,Aisne,Hauts-de-France,2,A1,2
02326,02290,FONTENOY,Fontenoy,80,49.4099999437,3.19454758662,2,Aisne,Hauts-de-France,2,A1,1
02327,02590,FORESTE,Foreste,81,49.8055794029,3.09615936707,2,Aisne,Hauts-de-France,2,A1,1
02328,02650,FOSSOY,Fossoy,135,49.044990122,3.48523126715,2,Aisne,Hauts-de-France,2,A1,1
02329,02870,FOURDRAIN,Fourdrain,87,49.6194184451,3.46049121118,2,Aisne,Hauts-de-France,2,A1,1
02330,02760,FRANCILLY SELENCY,Francilly-Selency,114,49.8546596853,3.22822036861,2,Aisne,Hauts-de-France,2,A1,1
02331,02140,FRANQUEVILLE,Franqueville,140,49.8164125588,3.79770261738,2,Aisne,Hauts-de-France,2,A1,1
02332,02130,FRESNES EN TARDENOIS,Fresnes-en-Tardenois,180,49.1427948273,3.54893406985,2,Aisne,Hauts-de-France,2,A1,1
02333,02380,FRESNES,Fresnes-sous-Coucy,161,49.5548078585,3.37018022508,2,Aisne,Hauts-de-France,2,A1,1
02334,02230,FRESNOY LE GRAND,Fresnoy-le-Grand,129,49.9540724704,3.41858032499,2,Aisne,Hauts-de-France,2,A1,2
02335,02800,FRESSANCOURT,Fressancourt,80,49.6284783975,3.42727910427,2,Aisne,Hauts-de-France,2,A1,1
02336,02700,FRIERES FAILLOUEL,Frières-Faillouël,82,49.6835552621,3.23680430341,2,Aisne,Hauts-de-France,2,A1,1
02337,02260,FROIDESTREES,Froidestrées,195,49.9427092508,3.91032175248,2,Aisne,Hauts-de-France,2,A1,1
02338,02270,FROIDMONT COHARTILLE,Froidmont-Cohartille,82,49.6818768902,3.72070844849,2,Aisne,Hauts-de-France,2,A1,1
02339,02810,GANDELU,Gandelu,118,49.0832089104,3.18156231552,2,Aisne,Hauts-de-France,2,A1,1
02340,02430,GAUCHY,Gauchy,94,49.8234688599,3.28649189661,2,Aisne,Hauts-de-France,2,A1,1
02341,02140,GERCY,Gercy,148,49.8158108138,3.87133277309,2,Aisne,Hauts-de-France,2,A1,1
02342,02260,GERGNY,Gergny,177,49.9326319225,3.92972384714,2,Aisne,Hauts-de-France,2,A1,1
02343,02590,GERMAINE,Germaine,85,49.8124843843,3.11903042429,2,Aisne,Hauts-de-France,2,A1,1
02344,02160,GERNICOURT,Gernicourt,71,49.3952382352,3.86382109909,2,Aisne,Hauts-de-France,2,A1,1
02345,02440,GIBERCOURT,Gibercourt,89,49.7393520234,3.28269647304,2,Aisne,Hauts-de-France,2,A1,1
02346,02350,GIZY,Gizy,81,49.6104960814,3.76786152197,2,Aisne,Hauts-de-France,2,A1,1
02347,02400,GLAND,Gland,154,49.0579740538,3.45713931457,2,Aisne,Hauts-de-France,2,A1,1
02349,02820,GOUDELANCOURT LES BERRIEUX,Goudelancourt-lès-Berrieux,100,49.4946764579,3.85858670968,2,Aisne,Hauts-de-France,2,A1,1
02350,02350,GOUDELANCOURT LES PIERREPONT,Goudelancourt-lès-Pierrepont,104,49.6783296824,3.85162740345,2,Aisne,Hauts-de-France,2,A1,1
02351,02130,GOUSSANCOURT,Goussancourt,203,49.1608459229,3.65658681802,2,Aisne,Hauts-de-France,2,A1,1
02352,02420,GOUY,Gouy,118,49.9987486908,3.26458305638,2,Aisne,Hauts-de-France,2,A1,2
02353,02350,GRANDLUP ET FAY,Grandlup-et-Fay,83,49.6512687794,3.73646950468,2,Aisne,Hauts-de-France,2,A1,1
02354,02360,GRANDRIEUX,Grandrieux,201,49.7291718471,4.1879249496,2,Aisne,Hauts-de-France,2,A1,1
02355,02100,GRICOURT,Gricourt,105,49.8869947757,3.23960817466,2,Aisne,Hauts-de-France,2,A1,1
02356,02210,GRISOLLES,Grisolles,179,49.130183511,3.37217369933,2,Aisne,Hauts-de-France,2,A1,1
02357,02140,GRONARD,Gronard,151,49.7963196915,3.88176918551,2,Aisne,Hauts-de-France,2,A1,1
02358,02110,GROUGIS,Grougis,148,49.9508110437,3.53098081744,2,Aisne,Hauts-de-France,2,A1,2
02359,02680,GRUGIES,Grugies,85,49.8100941328,3.2751623814,2,Aisne,Hauts-de-France,2,A1,1
02360,02190,GUIGNICOURT,Guignicourt,77,49.4433017606,3.95534582458,2,Aisne,Hauts-de-France,2,A1,1
02361,02120,GUISE,Guise,129,49.8960415076,3.62476062929,2,Aisne,Hauts-de-France,2,A1,1
02362,02300,GUIVRY,Guivry,114,49.651625761,3.12103476493,2,Aisne,Hauts-de-France,2,A1,1
02363,02300,GUNY,Guny,87,49.5120153085,3.26082658052,2,Aisne,Hauts-de-France,2,A1,1
02364,02160,GUYENCOURT,Guyencourt,123,49.3573380108,3.84132930883,2,Aisne,Hauts-de-France,2,A1,1
02366,02510,HANNAPES,Hannapes,146,49.9771158104,3.61442642232,2,Aisne,Hauts-de-France,2,A1,2
02367,02480,HAPPENCOURT,Happencourt,83,49.7825905619,3.1831286327,2,Aisne,Hauts-de-France,2,A1,1
02368,02600,HARAMONT,Haramont,163,49.2872759039,3.03148977109,2,Aisne,Hauts-de-France,2,A1,1
02369,02140,HARCIGNY,Harcigny,174,49.80256362,3.9828364762,2,Aisne,Hauts-de-France,2,A1,1
02370,02420,HARGICOURT,Hargicourt,130,49.9664492878,3.19055510378,2,Aisne,Hauts-de-France,2,A1,2
02371,02100,HARLY,Harly,89,49.8407051764,3.33484724239,2,Aisne,Hauts-de-France,2,A1,1
02372,02210,HARTENNES ET TAUX,Hartennes-et-Taux,149,49.2789534457,3.35763287633,2,Aisne,Hauts-de-France,2,A1,1
02373,02140,HARY,Hary,156,49.797388651,3.91927403736,2,Aisne,Hauts-de-France,2,A1,1
02374,02420,LEHAUCOURT,Lehaucourt,110,49.911760676,3.27675235436,2,Aisne,Hauts-de-France,2,A1,2
02375,02810,HAUTEVESNES,Hautevesnes,147,49.1088469374,3.2356780284,2,Aisne,Hauts-de-France,2,A1,1
02376,02120,HAUTEVILLE,Hauteville,114,49.8884981223,3.52369340599,2,Aisne,Hauts-de-France,2,A1,1
02377,02140,HAUTION,Haution,178,49.8721128525,3.82719888249,2,Aisne,Hauts-de-France,2,A1,1
02378,02500,LA HERIE,La Hérie,170,49.8838269882,4.04360657052,2,Aisne,Hauts-de-France,2,C1,2
02379,02120,LE HERIE LA VIEVILLE,Le Hérie-la-Viéville,118,49.8222697536,3.65376324724,2,Aisne,Hauts-de-France,2,A1,1
02380,02440,HINACOURT,Hinacourt,90,49.7459956466,3.29422566384,2,Aisne,Hauts-de-France,2,A1,1
02381,02500,HIRSON,Hirson,215,49.9426458618,4.10483732841,2,Aisne,Hauts-de-France,2,C1,2
02382,02760,HOLNON,Holnon,115,49.8612556888,3.20085325892,2,Aisne,Hauts-de-France,2,A1,1
02383,02720,HOMBLIERES,Homblières,102,49.8577543083,3.37495127984,2,Aisne,Hauts-de-France,2,A1,1
02384,02140,HOURY,Houry,129,49.7861780633,3.84806416077,2,Aisne,Hauts-de-France,2,A1,1
02385,02250,HOUSSET,Housset,126,49.7961649956,3.69539262425,2,Aisne,Hauts-de-France,2,A1,1
02386,02510,IRON,Iron,144,49.9504309458,3.6652978953,2,Aisne,Hauts-de-France,2,A1,2
02387,02240,ITANCOURT,Itancourt,103,49.803442885,3.34942752527,2,Aisne,Hauts-de-France,2,A1,1
02388,02360,IVIERS,Iviers,225,49.7858863872,4.13552902559,2,Aisne,Hauts-de-France,2,A1,1
02389,02850,JAULGONNE,Jaulgonne,114,49.0895236955,3.53359601877,2,Aisne,Hauts-de-France,2,A1,1
02390,02490,JEANCOURT,Jeancourt,105,49.9288562683,3.14778805313,2,Aisne,Hauts-de-France,2,A1,1
02391,02140,JEANTES,Jeantes,204,49.8127276252,4.06715502895,2,Aisne,Hauts-de-France,2,A1,1
02392,02420,JONCOURT,Joncourt,131,49.9601487798,3.30407272701,2,Aisne,Hauts-de-France,2,A1,2
02393,02220,JOUAIGNES,Jouaignes,118,49.2928418789,3.52818628425,2,Aisne,Hauts-de-France,2,A1,1
02395,02380,JUMENCOURT,Jumencourt,97,49.5122950231,3.34939792383,2,Aisne,Hauts-de-France,2,A1,1
02396,02160,JUMIGNY,Jumigny,91,49.4083834603,3.72524669282,2,Aisne,Hauts-de-France,2,A1,1
02397,02480,JUSSY,Jussy,73,49.7172050931,3.23611732777,2,Aisne,Hauts-de-France,2,A1,1
02398,02880,JUVIGNY,Juvigny,134,49.44857677,3.31533781107,2,Aisne,Hauts-de-France,2,A1,1
02399,02190,JUVINCOURT ET DAMARY,Juvincourt-et-Damary,69,49.4468853425,3.89147198339,2,Aisne,Hauts-de-France,2,A1,1
02400,02880,LAFFAUX,Laffaux,146,49.4494770874,3.42995693216,2,Aisne,Hauts-de-France,2,A1,1
02401,02140,LAIGNY,Laigny,185,49.8631466398,3.86133626518,2,Aisne,Hauts-de-France,2,A1,1
02402,02590,LANCHY,Lanchy,90,49.8292105187,3.07415428089,2,Aisne,Hauts-de-France,2,A1,1
02403,02120,LANDIFAY ET BERTAIGNEMONT,Landifay-et-Bertaignemont,113,49.8255553996,3.60399989958,2,Aisne,Hauts-de-France,2,A1,1
02404,02140,LANDOUZY LA COUR,Landouzy-la-Cour,198,49.8441415789,3.99358286375,2,Aisne,Hauts-de-France,2,A1,1
02405,02140,LANDOUZY LA VILLE,Landouzy-la-Ville,203,49.8562890185,4.05045506584,2,Aisne,Hauts-de-France,2,A1,1
02406,02380,LANDRICOURT,Landricourt,84,49.505420346,3.36950507041,2,Aisne,Hauts-de-France,2,A1,1
02407,02000,LANISCOURT,Laniscourt,95,49.5469118723,3.53406747358,2,Aisne,Hauts-de-France,2,A1,1
02408,02000,LAON,Laon,79,49.5679724897,3.62089561902,2,Aisne,Hauts-de-France,2,A1,1
02409,02150,LAPPION,Lappion,107,49.5898015281,3.96457967258,2,Aisne,Hauts-de-France,2,A1,1
02410,02600,LARGNY SUR AUTOMNE,Largny-sur-Automne,134,49.2610748419,3.05411123113,2,Aisne,Hauts-de-France,2,A1,1
02411,02210,LATILLY,Latilly,154,49.1538863119,3.31218468893,2,Aisne,Hauts-de-France,2,A1,1
02412,02210,LAUNOY,Launoy,141,49.2629984132,3.4054374314,2,Aisne,Hauts-de-France,2,A1,1
02413,02860,LAVAL EN LAONNOIS,Laval-en-Laonnois,91,49.5029905064,3.58758242212,2,Aisne,Hauts-de-France,2,A1,1
02414,02450,LAVAQUERESSE,Lavaqueresse,159,49.9465387553,3.7166420191,2,Aisne,Hauts-de-France,2,A1,2
02415,02600,LAVERSINE,Laversine,123,49.3528718857,3.15459651522,2,Aisne,Hauts-de-France,2,A1,1
02416,02140,LEME,Lemé,162,49.843926232,3.7576717994,2,Aisne,Hauts-de-France,2,A1,1
02417,02420,LEMPIRE,Lempire,130,49.9953429453,3.17401503527,2,Aisne,Hauts-de-France,2,A1,2
02418,02260,LERZY,Lerzy,194,49.9499258495,3.88135093149,2,Aisne,Hauts-de-France,2,A1,1
02419,02170,LESCHELLE,Leschelle,181,49.9605709227,3.77740709683,2,Aisne,Hauts-de-France,2,A1,2
02420,02100,LESDINS,Lesdins,106,49.9043632178,3.31462117869,2,Aisne,Hauts-de-France,2,A1,1
02421,02220,LESGES,Lesges,132,49.309828392,3.50034767893,2,Aisne,Hauts-de-France,2,A1,1
02422,02120,LESQUIELLES ST GERMAIN,Lesquielles-Saint-Germain,129,49.931687068,3.62808644318,2,Aisne,Hauts-de-France,2,A1,1
02423,02380,LEUILLY SOUS COUCY,Leuilly-sous-Coucy,114,49.4734455044,3.35288205414,2,Aisne,Hauts-de-France,2,A1,1
02424,02880,LEURY,Leury,142,49.4269529918,3.34130922178,2,Aisne,Hauts-de-France,2,A1,1
02425,02500,LEUZE,Leuze,196,49.8578215993,4.16963845435,2,Aisne,Hauts-de-France,2,C1,2
02426,02420,LEVERGIES,Levergies,122,49.9345380686,3.31185579217,2,Aisne,Hauts-de-France,2,A1,2
02427,02220,LHUYS,Lhuys,111,49.2728528048,3.54230635286,2,Aisne,Hauts-de-France,2,A1,1
02428,02810,LICY CLIGNON,Licy-Clignon,120,49.102123319,3.26534900839,2,Aisne,Hauts-de-France,2,A1,1
02429,02860,LIERVAL,Lierval,146,49.4874867517,3.62227691789,2,Aisne,Hauts-de-France,2,A1,1
02430,02350,LIESSE NOTRE DAME,Liesse-Notre-Dame,73,49.6108544067,3.81711786834,2,Aisne,Hauts-de-France,2,A1,1
02431,02700,LIEZ,Liez,72,49.6923509874,3.30017368966,2,Aisne,Hauts-de-France,2,A1,1
02432,02220,LIME,Limé,72,49.3234940469,3.55539520178,2,Aisne,Hauts-de-France,2,A1,1
02433,02340,LISLET,Lislet,141,49.6757265054,4.02084295692,2,Aisne,Hauts-de-France,2,A1,1
02434,02320,LIZY,Lizy,81,49.5119505422,3.47941613566,2,Aisne,Hauts-de-France,2,A1,1
02435,02500,LOGNY LES AUBENTON,Logny-lès-Aubenton,206,49.8330144048,4.2201280927,2,Aisne,Hauts-de-France,2,C1,2
02438,02600,LONGPONT,Longpont,123,49.2843362442,3.22069360555,2,Aisne,Hauts-de-France,2,A1,1
02439,02160,LES SEPTVALLONS,Les Septvallons,124,49.3603355862,3.65567844397,2,Aisne,Hauts-de-France,2,A1,1
02440,02190,LOR,Lor,98,49.5296668744,4.05453884406,2,Aisne,Hauts-de-France,2,A1,1
02441,02600,LOUATRE,Louâtre,129,49.2527947078,3.24153629897,2,Aisne,Hauts-de-France,2,A1,1
02442,02130,LOUPEIGNE,Loupeigne,121,49.2411071956,3.5251073823,2,Aisne,Hauts-de-France,2,A1,1
02443,02400,LUCY LE BOCAGE,Lucy-le-Bocage,180,49.0549612755,3.27616704555,2,Aisne,Hauts-de-France,2,A1,1
02444,02140,LUGNY,Lugny,122,49.782281297,3.8121953982,2,Aisne,Hauts-de-France,2,A1,1
02445,02500,LUZOIR,Luzoir,167,49.9271348987,3.96025090337,2,Aisne,Hauts-de-France,2,C1,2
02446,02440,LY FONTAINE,Ly-Fontaine,85,49.732033107,3.31099377857,2,Aisne,Hauts-de-France,2,A1,1
02447,02220,MAAST ET VIOLAINE,Maast-et-Violaine,131,49.2931740531,3.45694908531,2,Aisne,Hauts-de-France,2,A1,1
02448,02350,MACHECOURT,Mâchecourt,81,49.6516966172,3.83765995783,2,Aisne,Hauts-de-France,2,A1,1
02449,02470,MACOGNY,Macogny,141,49.1590429097,3.21784708642,2,Aisne,Hauts-de-France,2,A1,1
02450,02120,MACQUIGNY,Macquigny,121,49.8732387452,3.57070489565,2,Aisne,Hauts-de-France,2,A1,1
02451,02420,MAGNY LA FOSSE,Magny-la-Fosse,116,49.9371259007,3.27654031882,2,Aisne,Hauts-de-France,2,A1,2
02452,02490,MAISSEMY,Maissemy,95,49.8929443672,3.1890371838,2,Aisne,Hauts-de-France,2,A1,1
02453,02160,MAIZY,Maizy,77,49.377259904,3.71616526094,2,Aisne,Hauts-de-France,2,A1,1
02454,02190,LA MALMAISON,La Malmaison,106,49.5165178767,4.00048717912,2,Aisne,Hauts-de-France,2,A1,1
02455,02120,MALZY,Malzy,151,49.921297034,3.73000059946,2,Aisne,Hauts-de-France,2,A1,1
02456,02300,MANICAMP,Manicamp,47,49.5650654162,3.17962639988,2,Aisne,Hauts-de-France,2,A1,1
02457,02350,MARCHAIS,Marchais,76,49.5850707567,3.82150148626,2,Aisne,Hauts-de-France,2,A1,1
02458,02330,DHUYS ET MORIN EN BRIE,Dhuys et Morin-en-Brie,191,48.8935786183,3.49268121283,2,Aisne,Hauts-de-France,2,A1,1
02458,02540,DHUYS ET MORIN EN BRIE,Dhuys et Morin-en-Brie,191,48.8935786183,3.49268121283,2,Aisne,Hauts-de-France,2,A1,1
02459,02720,MARCY,Marcy,105,49.8535898318,3.41135532201,2,Aisne,Hauts-de-France,2,A1,1
02460,02250,MARCY SOUS MARLE,Marcy-sous-Marle,96,49.7457495163,3.73453881149,2,Aisne,Hauts-de-France,2,A1,1
02461,02300,MAREST DAMPCOURT,Marest-Dampcourt,47,49.59443854,3.14627124688,2,Aisne,Hauts-de-France,2,A1,1
02462,02130,MAREUIL EN DOLE,Mareuil-en-Dôle,158,49.2424552782,3.56114326739,2,Aisne,Hauts-de-France,2,A1,1
02463,02140,MARFONTAINE,Marfontaine,137,49.8080469097,3.7639268819,2,Aisne,Hauts-de-France,2,A1,1
02464,02880,MARGIVAL,Margival,118,49.432719029,3.40572977303,2,Aisne,Hauts-de-France,2,A1,1
02465,02810,MARIGNY EN ORXOIS,Marigny-en-Orxois,179,49.0526386182,3.22281001734,2,Aisne,Hauts-de-France,2,A1,1
02466,02470,MARIZY STE GENEVIEVE,Marizy-Sainte-Geneviève,119,49.1825477943,3.19814247608,2,Aisne,Hauts-de-France,2,A1,1
02467,02470,MARIZY ST MARD,Marizy-Saint-Mard,111,49.1822693098,3.22799114728,2,Aisne,Hauts-de-France,2,A1,1
02468,02250,MARLE,Marle,104,49.7451393478,3.7652054501,2,Aisne,Hauts-de-France,2,A1,1
02469,02120,MARLY GOMONT,Marly-Gomont,154,49.8913737841,3.7849871912,2,Aisne,Hauts-de-France,2,A1,1
02470,02500,MARTIGNY,Martigny,191,49.866582249,4.13443052228,2,Aisne,Hauts-de-France,2,C1,2
02471,02860,MARTIGNY COURPIERRE,Martigny-Courpierre,123,49.4900405005,3.6867077549,2,Aisne,Hauts-de-France,2,A1,1
02472,02820,MAUREGNY EN HAYE,Mauregny-en-Haye,114,49.5406230877,3.79762834314,2,Aisne,Hauts-de-France,2,A1,1
02473,02800,MAYOT,Mayot,78,49.7090117255,3.39804766077,2,Aisne,Hauts-de-France,2,A1,1
02474,02700,MENNESSIS,Mennessis,65,49.6918385873,3.27543313236,2,Aisne,Hauts-de-France,2,A1,1
02475,02190,MENNEVILLE,Menneville,71,49.4303233528,4.00555747176,2,Aisne,Hauts-de-France,2,A1,1
02476,02630,MENNEVRET,Mennevret,152,49.9919704555,3.55884133428,2,Aisne,Hauts-de-France,2,A1,2
02477,02200,MERCIN ET VAUX,Mercin-et-Vaux,89,49.3705627456,3.27070140635,2,Aisne,Hauts-de-France,2,A1,1
02478,02000,MERLIEUX ET FOUQUEROLLES,Merlieux-et-Fouquerolles,102,49.5137172169,3.49932983224,2,Aisne,Hauts-de-France,2,A1,1
02480,02270,MESBRECOURT RICHECOURT,Mesbrecourt-Richecourt,72,49.710385665,3.53739733076,2,Aisne,Hauts-de-France,2,A1,1
02481,02720,MESNIL ST LAURENT,Mesnil-Saint-Laurent,110,49.8290188644,3.36454012617,2,Aisne,Hauts-de-France,2,A1,1
02482,02160,MEURIVAL,Meurival,142,49.3567698663,3.7590616765,2,Aisne,Hauts-de-France,2,A1,1
02483,02240,MEZIERES SUR OISE,Mézières-sur-Oise,86,49.7918999939,3.38740833653,2,Aisne,Hauts-de-France,2,A1,1
02484,02650,MEZY MOULINS,Mézy-Moulins,84,49.0630074888,3.5122782761,2,Aisne,Hauts-de-France,2,A1,1
02485,02200,MISSY AUX BOIS,Missy-aux-Bois,134,49.3349407256,3.24662970633,2,Aisne,Hauts-de-France,2,A1,1
02486,02350,MISSY LES PIERREPONT,Missy-lès-Pierrepont,75,49.6279354887,3.7841954065,2,Aisne,Hauts-de-France,2,A1,1
02487,02880,MISSY SUR AISNE,Missy-sur-Aisne,64,49.3855898418,3.43829672684,2,Aisne,Hauts-de-France,2,A1,1
02488,02110,MOLAIN,Molain,137,50.03359227,3.52985658168,2,Aisne,Hauts-de-France,2,A1,2
02489,02000,MOLINCHART,Molinchart,83,49.5624802928,3.53979641476,2,Aisne,Hauts-de-France,2,A1,1
02490,02000,MONAMPTEUIL,Monampteuil,125,49.4760084468,3.57360176783,2,Aisne,Hauts-de-France,2,A1,1
02491,02270,MONCEAU LE NEUF ET FAUCOUZY,Monceau-le-Neuf-et-Faucouzy,95,49.7845792788,3.63110860935,2,Aisne,Hauts-de-France,2,A1,1
02492,02270,MONCEAU LES LEUPS,Monceau-lès-Leups,77,49.6617789272,3.48549133203,2,Aisne,Hauts-de-France,2,A1,1
02493,02840,MONCEAU LE WAAST,Monceau-le-Waast,83,49.6217435488,3.71656668597,2,Aisne,Hauts-de-France,2,A1,1
02494,02120,MONCEAU SUR OISE,Monceau-sur-Oise,141,49.9097732744,3.69947432588,2,Aisne,Hauts-de-France,2,A1,1
02495,02500,MONDREPUIS,Mondrepuis,211,49.9637441269,4.05128113518,2,Aisne,Hauts-de-France,2,C1,2
02496,02470,MONNES,Monnes,143,49.1458358775,3.22861820737,2,Aisne,Hauts-de-France,2,A1,1
02497,02000,MONS EN LAONNOIS,Mons-en-Laonnois,104,49.5379451828,3.55478457954,2,Aisne,Hauts-de-France,2,A1,1
02498,02820,MONTAIGU,Montaigu,94,49.5531328831,3.84439779259,2,Aisne,Hauts-de-France,2,A1,1
02499,02000,MONTBAVIN,Montbavin,146,49.5295376592,3.51319789821,2,Aisne,Hauts-de-France,2,A1,1
02500,02110,MONTBREHAIN,Montbrehain,139,49.9642449609,3.35609147368,2,Aisne,Hauts-de-France,2,A1,2
02501,02860,MONTCHALONS,Montchâlons,151,49.5131917425,3.72718965805,2,Aisne,Hauts-de-France,2,A1,1
02502,02340,MONTCORNET,Montcornet,140,49.6890129328,4.02915061151,2,Aisne,Hauts-de-France,2,A1,1
02503,02390,MONT D ORIGNY,Mont-d'Origny,106,49.8514997521,3.52673568406,2,Aisne,Hauts-de-France,2,A1,1
02504,02440,MONTESCOURT LIZEROLLES,Montescourt-Lizerolles,82,49.7360396205,3.26188923395,2,Aisne,Hauts-de-France,2,A1,1
02505,02540,MONTFAUCON,Montfaucon,186,48.9466694844,3.43192398845,2,Aisne,Hauts-de-France,2,A1,1
02506,02600,MONTGOBERT,Montgobert,137,49.289626635,3.17404129063,2,Aisne,Hauts-de-France,2,A1,1
02507,02210,MONTGRU ST HILAIRE,Montgru-Saint-Hilaire,129,49.1768851038,3.32722209943,2,Aisne,Hauts-de-France,2,A1,1
02508,02860,MONTHENAULT,Monthenault,172,49.4892743465,3.65592404446,2,Aisne,Hauts-de-France,2,A1,1
02509,02400,MONTHIERS,Monthiers,142,49.1085987235,3.29437776654,2,Aisne,Hauts-de-France,2,A1,1
02510,02330,MONTHUREL,Monthurel,172,49.0275310805,3.55187396803,2,Aisne,Hauts-de-France,2,A1,1
02511,02110,MONTIGNY EN ARROUAISE,Montigny-en-Arrouaise,128,49.9120067618,3.48306674241,2,Aisne,Hauts-de-France,2,A1,2
02512,02810,MONTIGNY L ALLIER,Montigny-l'Allier,109,49.1221418457,3.10744372815,2,Aisne,Hauts-de-France,2,A1,1
02513,02250,MONTIGNY LE FRANC,Montigny-le-Franc,136,49.6874788196,3.9183982393,2,Aisne,Hauts-de-France,2,A1,1
02514,02290,MONTIGNY LENGRAIN,Montigny-Lengrain,110,49.3726900463,3.09924630011,2,Aisne,Hauts-de-France,2,A1,1
02515,02330,MONTIGNY LES CONDE,Montigny-lès-Condé,156,48.9830055534,3.56635546224,2,Aisne,Hauts-de-France,2,A1,1
02516,02250,MONTIGNY SOUS MARLE,Montigny-sous-Marle,110,49.7411090858,3.80397947574,2,Aisne,Hauts-de-France,2,A1,1
02517,02270,MONTIGNY SUR CRECY,Montigny-sur-Crécy,91,49.7149248587,3.58368023998,2,Aisne,Hauts-de-France,2,A1,1
02518,02330,MONTLEVON,Montlevon,186,48.9627005485,3.51543798042,2,Aisne,Hauts-de-France,2,A1,1
02519,02340,MONTLOUE,Montloué,148,49.6682396007,4.06275825607,2,Aisne,Hauts-de-France,2,A1,1
02520,02220,MONT NOTRE DAME,Mont-Notre-Dame,103,49.2921467742,3.5821661713,2,Aisne,Hauts-de-France,2,A1,1
02521,02310,MONTREUIL AUX LIONS,Montreuil-aux-Lions,167,49.0264607134,3.19454438663,2,Aisne,Hauts-de-France,2,A1,1
02522,02360,MONT ST JEAN,Mont-Saint-Jean,234,49.7932196838,4.21125667983,2,Aisne,Hauts-de-France,2,A1,1
02523,02220,MONT ST MARTIN,Mont-Saint-Martin,152,49.2747967442,3.64275042996,2,Aisne,Hauts-de-France,2,A1,1
02524,02400,MONT ST PERE,Mont-Saint-Père,169,49.0816980947,3.47715449247,2,Aisne,Hauts-de-France,2,A1,1
02525,02100,MORCOURT,Morcourt,100,49.8759595448,3.33400206098,2,Aisne,Hauts-de-France,2,A1,1
02526,02360,MORGNY EN THIERACHE,Morgny-en-Thiérache,188,49.7544947391,4.07631392389,2,Aisne,Hauts-de-France,2,A1,1
02527,02290,MORSAIN,Morsain,106,49.4616807631,3.19122405616,2,Aisne,Hauts-de-France,2,A1,1
02528,02600,MORTEFONTAINE,Mortefontaine,130,49.3362768244,3.08053479514,2,Aisne,Hauts-de-France,2,A1,1
02529,02270,MORTIERS,Mortiers,77,49.6934508264,3.66411841593,2,Aisne,Hauts-de-France,2,A1,1
02530,02160,MOULINS,Moulins,97,49.4198471298,3.67884923026,2,Aisne,Hauts-de-France,2,A1,1
02531,02160,MOUSSY VERNEUIL,Moussy-Verneuil,75,49.4126815323,3.63718132987,2,Aisne,Hauts-de-France,2,A1,1
02532,02610,MOY DE L AISNE,Moÿ-de-l'Aisne,81,49.750274961,3.35100553228,2,Aisne,Hauts-de-France,2,A1,1
02533,02210,MURET ET CROUTTES,Muret-et-Crouttes,123,49.2781417953,3.43464742094,2,Aisne,Hauts-de-France,2,A1,1
02534,02160,MUSCOURT,Muscourt,134,49.3595795698,3.74350239233,2,Aisne,Hauts-de-France,2,A1,1
02535,02140,NAMPCELLES LA COUR,Nampcelles-la-Cour,170,49.7765756098,4.00209910519,2,Aisne,Hauts-de-France,2,A1,1
02536,02200,NAMPTEUIL SOUS MURET,Nampteuil-sous-Muret,124,49.3051403969,3.43398003516,2,Aisne,Hauts-de-France,2,A1,1
02537,02880,NANTEUIL LA FOSSE,Nanteuil-la-Fosse,112,49.4338010814,3.44800041437,2,Aisne,Hauts-de-France,2,A1,1
02538,02210,NANTEUIL NOTRE DAME,Nanteuil-Notre-Dame,109,49.1907421685,3.41207163018,2,Aisne,Hauts-de-France,2,A1,1
02539,02420,NAUROY,Nauroy,126,49.9508154668,3.25861980976,2,Aisne,Hauts-de-France,2,A1,2
02540,02400,NESLES LA MONTAGNE,Nesles-la-Montagne,208,48.9997837313,3.44587892818,2,Aisne,Hauts-de-France,2,A1,1
02541,02190,NEUFCHATEL SUR AISNE,Neufchâtel-sur-Aisne,80,49.4367296826,4.0236471269,2,Aisne,Hauts-de-France,2,A1,1
02542,02300,NEUFLIEUX,Neuflieux,72,49.6163788231,3.15996849471,2,Aisne,Hauts-de-France,2,A1,1
02543,02470,NEUILLY ST FRONT,Neuilly-Saint-Front,139,49.1626366671,3.26436269893,2,Aisne,Hauts-de-France,2,A1,1
02544,02500,NEUVE MAISON,Neuve-Maison,173,49.9286429779,4.04086730255,2,Aisne,Hauts-de-France,2,C1,2
02545,02250,LA NEUVILLE BOSMONT,La Neuville-Bosmont,126,49.7145039747,3.83367274994,2,Aisne,Hauts-de-France,2,A1,1
02546,02300,LA NEUVILLE EN BEINE,La Neuville-en-Beine,109,49.6762298475,3.15600362361,2,Aisne,Hauts-de-France,2,A1,1
02547,02250,LA NEUVILLE HOUSSET,La Neuville-Housset,137,49.7881379377,3.73171627307,2,Aisne,Hauts-de-France,2,A1,1
02548,02450,LA NEUVILLE LES DORENGT,La Neuville-lès-Dorengt,152,49.983064353,3.68565926181,2,Aisne,Hauts-de-France,2,A1,2
02549,02100,NEUVILLE ST AMAND,Neuville-Saint-Amand,108,49.8206477091,3.33360991741,2,Aisne,Hauts-de-France,2,A1,1
02550,02860,NEUVILLE SUR AILETTE,Neuville-sur-Ailette,115,49.4695141414,3.69819946444,2,Aisne,Hauts-de-France,2,A1,1
02551,02880,NEUVILLE SUR MARGIVAL,Neuville-sur-Margival,134,49.4548729773,3.3986658815,2,Aisne,Hauts-de-France,2,A1,1
02552,02390,NEUVILLETTE,Neuvillette,96,49.8554002239,3.46831298648,2,Aisne,Hauts-de-France,2,A1,1
02553,02150,NIZY LE COMTE,Nizy-le-Comte,104,49.574361853,4.03064818206,2,Aisne,Hauts-de-France,2,A1,1
02554,02400,NOGENTEL,Nogentel,115,49.0140758623,3.40340404208,2,Aisne,Hauts-de-France,2,A1,1
02555,02310,NOGENT L ARTAUD,Nogent-l'Artaud,167,48.9426222247,3.332802902,2,Aisne,Hauts-de-France,2,A1,1
02556,02340,NOIRCOURT,Noircourt,155,49.6691648747,4.09433809595,2,Aisne,Hauts-de-France,2,A1,1
02557,02600,NOROY SUR OURCQ,Noroy-sur-Ourcq,120,49.2041824443,3.20698565652,2,Aisne,Hauts-de-France,2,A1,1
02558,02170,LE NOUVION EN THIERACHE,Le Nouvion-en-Thiérache,203,50.0086867152,3.80929288198,2,Aisne,Hauts-de-France,2,A1,2
02559,02270,NOUVION ET CATILLON,Nouvion-et-Catillon,77,49.7075667391,3.49359729343,2,Aisne,Hauts-de-France,2,A1,1
02560,02800,NOUVION LE COMTE,Nouvion-le-Comte,74,49.7079830783,3.46084868911,2,Aisne,Hauts-de-France,2,A1,1
02561,02860,NOUVION LE VINEUX,Nouvion-le-Vineux,84,49.5092763308,3.605351266,2,Aisne,Hauts-de-France,2,A1,1
02562,02290,NOUVRON VINGRE,Nouvron-Vingré,119,49.4333492,3.18803179842,2,Aisne,Hauts-de-France,2,A1,1
02563,02120,NOYALES,Noyales,121,49.9082559491,3.53848565514,2,Aisne,Hauts-de-France,2,A1,1
02564,02200,NOYANT ET ACONIN,Noyant-et-Aconin,106,49.3319620657,3.33416303776,2,Aisne,Hauts-de-France,2,A1,1
02565,02160,OEUILLY,Œuilly,74,49.3928856944,3.68222741301,2,Aisne,Hauts-de-France,2,A1,1
02566,02300,OGNES,Ognes,60,49.6136864694,3.19142372904,2,Aisne,Hauts-de-France,2,A1,1
02567,02500,OHIS,Ohis,183,49.9184307239,4.01170912127,2,Aisne,Hauts-de-France,2,C1,2
02568,02600,OIGNY EN VALOIS,Oigny-en-Valois,133,49.2137237953,3.1302728623,2,Aisne,Hauts-de-France,2,A1,1
02569,02450,OISY,Oisy,149,50.0229089259,3.65273893683,2,Aisne,Hauts-de-France,2,A1,2
02570,02480,OLLEZY,Ollezy,69,49.729996536,3.14607261695,2,Aisne,Hauts-de-France,2,A1,1
02571,02100,OMISSY,Omissy,96,49.8804267246,3.29788036707,2,Aisne,Hauts-de-France,2,A1,1
02572,02190,ORAINVILLE,Orainville,71,49.3759679828,4.01565856496,2,Aisne,Hauts-de-France,2,A1,1
02573,02860,ORGEVAL,Orgeval,150,49.5041140764,3.70337016497,2,Aisne,Hauts-de-France,2,A1,1
02574,02550,ORIGNY EN THIERACHE,Origny-en-Thiérache,176,49.8861904623,4.01101149757,2,Aisne,Hauts-de-France,2,C1,2
02575,02390,ORIGNY STE BENOITE,Origny-Sainte-Benoite,94,49.8268502674,3.52909324665,2,Aisne,Hauts-de-France,2,A1,1
02576,02290,OSLY COURTIL,Osly-Courtil,52,49.3995301311,3.23736511582,2,Aisne,Hauts-de-France,2,A1,1
02577,02370,OSTEL,Ostel,147,49.4299692983,3.56538871192,2,Aisne,Hauts-de-France,2,A1,1
02578,02160,OULCHES LA VALLEE FOULON,Oulches-la-Vallée-Foulon,126,49.4311311984,3.73966290896,2,Aisne,Hauts-de-France,2,A1,1
02579,02210,OULCHY LA VILLE,Oulchy-la-Ville,140,49.2098503819,3.34062520679,2,Aisne,Hauts-de-France,2,A1,1
02580,02210,OULCHY LE CHATEAU,Oulchy-le-Château,126,49.2070701806,3.38202413773,2,Aisne,Hauts-de-France,2,A1,1
02581,02220,PAARS,Paars,94,49.3302779346,3.60267922049,2,Aisne,Hauts-de-France,2,A1,1
02582,02160,PAISSY,Paissy,153,49.4263466952,3.7014989195,2,Aisne,Hauts-de-France,2,A1,1
02583,02860,PANCY COURTECON,Pancy-Courtecon,115,49.4606885919,3.64987795196,2,Aisne,Hauts-de-France,2,A1,1
02584,02260,PAPLEUX,Papleux,214,50.0169167744,3.88023781289,2,Aisne,Hauts-de-France,2,A1,1
02585,02210,PARCY ET TIGNY,Parcy-et-Tigny,147,49.2703704352,3.32906709704,2,Aisne,Hauts-de-France,2,A1,1
02586,02360,PARFONDEVAL,Parfondeval,214,49.7443573688,4.16145285338,2,Aisne,Hauts-de-France,2,A1,1
02587,02840,PARFONDRU,Parfondru,90,49.5385213412,3.70351915315,2,Aisne,Hauts-de-France,2,A1,1
02588,02160,PARGNAN,Pargnan,92,49.3942391486,3.70308940891,2,Aisne,Hauts-de-France,2,A1,1
02589,02000,PARGNY FILAIN,Pargny-Filain,120,49.4629055692,3.53929108659,2,Aisne,Hauts-de-France,2,A1,1
02590,02330,PARGNY LA DHUYS,Pargny-la-Dhuys,185,48.9545509576,3.56357370593,2,Aisne,Hauts-de-France,2,A1,1
02591,02270,PARGNY LES BOIS,Pargny-les-Bois,109,49.7323072713,3.61788330529,2,Aisne,Hauts-de-France,2,A1,1
02592,02240,PARPEVILLE,Parpeville,114,49.7943758027,3.56422835389,2,Aisne,Hauts-de-France,2,A1,1
02593,02200,PASLY,Pasly,104,49.4022800131,3.29799527999,2,Aisne,Hauts-de-France,2,A1,1
02594,02470,PASSY EN VALOIS,Passy-en-Valois,149,49.1621618332,3.18418881622,2,Aisne,Hauts-de-France,2,A1,1
02595,02850,PASSY SUR MARNE,Passy-sur-Marne,123,49.0663377762,3.57438808256,2,Aisne,Hauts-de-France,2,A1,1
